$GPRMC,111957.0,A,3724.141454,N,12706.702736,E,7.3,270.6,030913,0.0,E,A*06
$GPGSA,A,2,02,04,05,07,08,09,10,12,13,17,25,26,0.9,0.6,0.6*3A
$GPGSV,4,1,16,02,75,001,37,04,48,099,26,05,55,277,37,07,12,092,23*7F
$GPGSV,4,2,16,08,04,120,18,09,08,126,23,10,54,040,34,12,06,247,31*7E
$GPGSV,4,3,16,13,24,043,26,17,04,158,26,25,05,285,19,26,22,191,33*7C
$GPGSV,4,4,16,29,14,319,26,30,,,36,,,,30,41,,,31*4D
$GPGGA,111958.0,3724.140626,N,12706.699671,E,1,12,0.6,102.2,M,19.0,M,,*54
$GPRMC,111958.0,A,3724.140626,N,12706.699671,E,8.3,265.5,030913,0.0,E,A*06
$GPGSA,A,2,02,04,05,07,08,09,10,12,13,17,25,26,0.9,0.6,0.6*3A
$GPGSV,4,1,16,02,75,001,36,04,48,099,26,05,55,277,38,07,12,092,21*73
$GPGSV,4,2,16,08,04,120,19,09,08,126,23,10,54,040,34,12,06,247,28*77
$GPGSV,4,3,16,13,24,043,24,17,04,158,24,25,05,285,20,26,22,191,34*71
$GPGSV,4,4,16,29,14,319,27,30,,,36,,,,30,41,,,31*4C
$GPGGA,111959.0,3724.140083,N,12706.696379,E,1,12,0.6,105.7,M,19.0,M,,*5C
$GPRMC,111959.0,A,3724.140083,N,12706.696379,E,8.8,270.2,030913,0.0,E,A*04
$GPGSA,A,2,02,04,05,07,08,09,10,12,13,17,25,26,0.9,0.6,0.6*3A
$GPGSV,4,1,16,02,75,001,36,04,48,099,30,05,55,277,36,07,12,092,19*71
$GPGSV,4,2,16,08,04,120,17,09,08,126,23,10,54,040,24,12,06,247,32*73
$GPGSV,4,3,16,13,24,043,26,17,04,158,25,25,05,285,18,26,22,191,34*79
$GPGSV,4,4,16,29,14,319,30,30,,,40,,,,30,41,,,31*4B
$GPGGA,112000.0,3724.139601,N,12706.692835,E,1,12,0.6,109.5,M,19.0,M,,*51
$GPRMC,112000.0,A,3724.139601,N,12706.692835,E,9.2,268.8,030913,0.0,E,A*0F
$GPGSA,A,2,02,04,05,07,08,09,10,12,13,17,25,26,0.9,0.6,0.6*3A
$GPGSV,4,1,15,02,75,001,37,04,48,099,36,05,55,277,38,07,12,092,19*7B
$GPGSV,4,2,15,08,04,120,20,10,54,040,30,12,06,247,29,13,24,043,27*78
$GPGSV,4,3,15,25,05,285,19,26,22,191,39,29,14,319,28,30,,,40*40
$GPGSV,4,4,15,,,,30,41,,,31,42,,,33*7F
$GPGGA,112001.0,3724.138509,N,12706.687829,E,1,12,0.6,110.8,M,19.0,M,,*56
$GPRMC,112001.0,A,3724.138509,N,12706.687829,E,10.3,271.5,030913,0.0,E,A*31
$GPGSA,A,2,02,04,05,07,08,09,10,12,13,17,25,26,0.9,0.6,0.6*3A
$GPGSV,4,1,15,02,75,001,38,04,48,099,38,05,55,277,38,07,12,092,16*75
$GPGSV,4,2,15,08,04,120,20,10,54,040,35,12,06,247,25,13,24,043,20*76
$GPGSV,4,3,15,25,05,285,18,26,22,191,41,29,14,319,25,30,,,41*42
$GPGSV,4,4,15,,,,31,41,,,31,42,,,33*7E
$GPGGA,112002.0,3724.137356,N,12706.683328,E,1,12,0.6,111.2,M,19.0,M,,*53
$GPRMC,112002.0,A,3724.137356,N,12706.683328,E,12.4,269.0,030913,0.0,E,A*36
$GPGSA,A,2,02,04,05,07,08,09,10,12,13,17,25,26,0.9,0.6,0.6*3A
$GPGSV,4,1,15,02,75,001,38,04,48,099,31,05,55,277,37,07,12,092,16*73
$GPGSV,4,2,15,08,04,120,20,09,08,126,23,10,54,040,32,12,06,247,20*70
$GPGSV,4,3,15,13,24,043,20,25,05,285,18,26,22,191,35,29,14,319,23*70
$GPGSV,4,4,15,30,,,40,,,,29,41,,,31*76
$GPGGA,112003.0,3724.136135,N,12706.679067,E,1,12,0.6,111.7,M,19.0,M,,*5C
$GPRMC,112003.0,A,3724.136135,N,12706.679067,E,12.1,265.9,030913,0.0,E,A*3C
$GPGSA,A,2,02,04,05,07,09,10,12,13,17,25,26,29,0.9,0.6,0.7*38
$GPGSV,4,1,14,02,75,001,38,04,48,099,31,05,55,277,37,08,04,120,16*72
$GPGSV,4,2,14,09,08,126,26,10,54,040,32,12,06,247,23,13,24,043,21*7A
$GPGSV,4,3,14,25,05,285,18,26,22,191,33,29,14,319,22,30,,,40*40
$GPGSV,4,4,14,,,,29,41,,,31*70
$GPGGA,112004.0,3724.135832,N,12706.674820,E,1,11,0.7,109.3,M,19.0,M,,*5F
$GPRMC,112004.0,A,3724.135832,N,12706.674820,E,11.9,267.7,030913,0.0,E,A*37
$GPGSA,A,2,02,04,05,07,09,10,12,13,17,26,29,,1.0,0.7,0.7*36
$GPGSV,4,1,15,02,75,001,36,04,48,099,31,05,55,277,38,07,12,092,16*72
$GPGSV,4,2,15,08,04,120,19,09,08,126,22,10,54,040,38,12,06,247,19*7B
$GPGSV,4,3,15,13,24,043,23,25,05,285,18,26,22,191,33,29,14,319,26*70
$GPGSV,4,4,15,30,,,40,,,,30,41,,,31*7E
$GPGGA,112005.0,3724.137422,N,12706.670808,E,1,11,0.7,102.9,M,19.0,M,,*5E
$GPRMC,112005.0,A,3724.137422,N,12706.670808,E,11.7,269.2,030913,0.0,E,A*32
$GPGSA,A,2,02,04,05,07,09,10,12,13,17,26,29,,1.0,0.7,0.7*36
$GPGSV,4,1,15,02,75,001,36,04,48,099,33,05,55,277,39,07,12,092,18*7F
$GPGSV,4,2,15,08,04,120,19,09,08,126,19,10,54,040,32,12,06,247,22*71
$GPGSV,4,3,15,13,24,043,22,25,05,285,16,26,22,191,27,29,14,319,26*7A
$GPGSV,4,4,15,30,,,41,,,,31,41,,,31*7E
$GPGGA,112006.0,3724.137523,N,12706.666399,E,1,10,0.7,98.8,M,19.0,M,,*6B
$GPRMC,112006.0,A,3724.137523,N,12706.666399,E,12.4,269.3,030913,0.0,E,A*34
$GPGSA,A,2,02,04,05,09,10,12,13,17,26,29,,,1.0,0.7,0.7*31
$GPGSV,4,1,15,02,75,001,35,04,48,099,32,05,55,277,38,07,12,092,18*7C
$GPGSV,4,2,15,08,04,120,14,09,09,126,21,10,54,040,32,12,06,247,19*7E
$GPGSV,4,3,15,13,24,043,24,25,05,285,18,26,22,191,27,29,14,319,27*73
$GPGSV,4,4,15,30,,,32,,,,29,41,,,31*73
$GPGGA,112007.0,3724.137882,N,12706.661431,E,1,09,0.7,96.2,M,19.0,M,,*62
$GPRMC,112007.0,A,3724.137882,N,12706.661431,E,13.2,269.5,030913,0.0,E,A*30
$GPGSA,A,2,02,04,05,09,10,12,13,26,29,,,,1.0,0.7,0.7*37
$GPGSV,4,1,14,02,75,001,33,04,48,099,32,05,55,277,38,07,12,092,16*75
$GPGSV,4,2,14,08,04,120,14,09,09,126,19,10,54,040,33,12,06,247,20*7F
$GPGSV,4,3,14,13,24,043,22,25,05,285,18,29,14,319,26,30,,,18*47
$GPGSV,4,4,14,,,,28,41,,,31*71
$GPGGA,112008.0,3724.138147,N,12706.656283,E,1,09,0.7,94.6,M,19.0,M,,*6F
$GPRMC,112008.0,A,3724.138147,N,12706.656283,E,14.0,269.8,030913,0.0,E,A*33
$GPGSA,A,2,02,04,05,09,10,12,13,26,29,,,,1.0,0.7,0.7*37
$GPGSV,4,1,15,02,75,001,35,04,48,099,31,05,55,277,38,07,12,092,18*7F
$GPGSV,4,2,15,08,04,120,15,10,54,040,35,12,06,247,23,13,24,043,25*73
$GPGSV,4,3,15,25,05,285,22,29,14,319,25,30,,,17,,,,30*73
$GPGSV,4,4,15,41,,,31,42,,,33,50,,,32*78
$GPGGA,112009.0,3724.138228,N,12706.650928,E,1,10,0.7,93.8,M,19.0,M,,*69
$GPRMC,112009.0,A,3724.138228,N,12706.650928,E,14.7,270.5,030913,0.0,E,A*36
$GPGSA,A,2,02,04,05,09,10,12,13,25,26,29,,,1.0,0.7,0.7*30
$GPGSV,4,1,15,02,75,001,32,04,48,099,29,05,55,277,37,07,12,092,18*7E
$GPGSV,4,2,15,08,04,120,18,10,54,040,35,12,06,247,25,13,24,043,27*7A
$GPGSV,4,3,15,25,05,285,18,29,14,319,28,30,,,17,,,,30*77
$GPGSV,4,4,15,41,,,31,42,,,33,50,,,32*78
$GPGGA,112010.0,3724.138195,N,12706.645298,E,1,10,0.7,93.5,M,19.0,M,,*6D
$GPRMC,112010.0,A,3724.138195,N,12706.645298,E,15.7,270.6,030913,0.0,E,A*3D
$GPGSA,A,2,02,04,05,09,10,12,13,25,26,29,,,1.0,0.7,0.7*30
$GPGSV,4,1,15,02,75,001,36,04,48,099,32,05,55,277,39,07,12,092,18*7E
$GPGSV,4,2,15,08,04,120,18,10,54,040,35,12,06,247,26,13,24,043,28*76
$GPGSV,4,3,15,25,05,285,18,29,14,319,28,30,,,17,,,,32*75
$GPGSV,4,4,15,41,,,31,42,,,33,50,,,32*78
$GPGGA,112011.0,3724.138193,N,12706.639571,E,1,10,0.7,93.2,M,19.0,M,,*66
$GPRMC,112011.0,A,3724.138193,N,12706.639571,E,15.8,271.6,030913,0.0,E,A*3F
$GPGSA,A,2,02,04,05,09,10,12,13,25,26,29,,,1.0,0.7,0.7*30
$GPGSV,4,1,15,02,75,001,38,04,48,099,31,05,55,277,38,07,12,092,21*78
$GPGSV,4,2,15,08,04,120,18,09,09,126,18,10,54,040,36,12,06,247,20*76
$GPGSV,4,3,15,13,24,043,29,25,05,285,21,29,14,319,28,,,,30*40
$GPGSV,4,4,15,41,,,31,42,,,33,50,,,32*78
$GPGGA,112012.0,3724.137980,N,12706.633654,E,1,11,0.7,93.2,M,19.0,M,,*6F
$GPRMC,112012.0,A,3724.137980,N,12706.633654,E,16.1,269.4,030913,0.0,E,A*36
$GPGSA,A,2,02,04,05,07,09,10,12,13,25,26,29,,0.9,0.7,0.7*3F
$GPGSV,4,1,15,02,75,001,34,04,48,101,30,05,55,277,39,07,12,092,23*76
$GPGSV,4,2,15,08,04,120,15,09,09,126,19,10,54,040,38,12,06,247,22*76
$GPGSV,4,3,15,13,24,043,30,25,05,285,21,29,14,319,29,,,,32*4B
$GPGSV,4,4,15,41,,,31,42,,,33,50,,,32*78
$GPGGA,112013.0,3724.137503,N,12706.627431,E,1,10,0.7,94.6,M,19.0,M,,*6F
$GPRMC,112013.0,A,3724.137503,N,12706.627431,E,16.6,271.2,030913,0.0,E,A*3C
$GPGSA,A,2,02,04,05,07,09,10,12,13,25,29,,,1.0,0.7,0.7*33
$GPGSV,4,1,15,02,75,001,33,04,48,101,31,05,55,277,37,07,12,092,30*7C
$GPGSV,4,2,15,08,04,120,15,09,09,126,19,10,54,040,35,12,06,247,22*7B
$GPGSV,4,3,15,13,24,043,30,25,05,285,17,29,14,319,29,,,,29*44
$GPGSV,4,4,15,41,,,31,42,,,33,50,,,32*78
$GPGGA,112014.0,3724.138178,N,12706.621050,E,1,09,0.8,93.9,M,19.0,M,,*65
$GPRMC,112014.0,A,3724.138178,N,12706.621050,E,16.4,277.0,030913,0.0,E,A*3F
$GPGSA,A,2,02,04,05,07,10,12,13,25,29,,,,1.0,0.8,0.7*35
$GPGSV,4,1,15,02,75,001,37,04,48,101,32,05,55,277,38,07,12,092,27*72
$GPGSV,4,2,15,08,04,120,16,09,09,126,19,10,54,040,33,12,06,247,22*7E
$GPGSV,4,3,15,13,24,043,29,25,05,285,19,29,14,319,31,,,,30*43
$GPGSV,4,4,15,41,,,31,42,,,33,50,,,32*78
$GPGGA,112015.0,3724.138461,N,12706.615168,E,1,09,0.8,92.2,M,19.0,M,,*6E
$GPRMC,112015.0,A,3724.138461,N,12706.615168,E,16.3,271.0,030913,0.0,E,A*3F
$GPGSA,A,2,02,04,05,07,10,12,13,25,29,,,,1.0,0.8,0.7*35
$GPGSV,4,1,14,02,75,001,35,04,48,101,32,05,55,277,38,07,12,092,24*72
$GPGSV,4,2,14,08,04,120,19,10,54,040,33,12,06,247,23,13,24,043,31*7D
$GPGSV,4,3,14,25,05,285,23,29,14,319,29,,,,32,41,,,32*7C
$GPGSV,4,4,14,42,,,33,50,,,32*7E
$GPGGA,112016.0,3724.138394,N,12706.609485,E,1,09,0.9,91.9,M,19.0,M,,*62
$GPRMC,112016.0,A,3724.138394,N,12706.609485,E,15.9,272.4,030913,0.0,E,A*34
$GPGSA,A,2,02,04,05,07,10,12,13,25,29,,,,1.1,0.9,0.7*35
$GPGSV,4,1,14,02,75,001,37,04,48,101,35,05,55,277,36,07,12,092,23*7E
$GPGSV,4,2,14,08,04,120,20,10,54,040,32,12,06,247,27,13,24,043,29*7B
$GPGSV,4,3,14,25,05,285,20,29,14,319,31,,,,30,41,,,30*76
$GPGSV,4,4,14,42,,,33,50,,,32*7E
$GPGGA,112017.0,3724.139398,N,12706.602977,E,1,09,0.8,86.9,M,19.0,M,,*62
$GPRMC,112017.0,A,3724.139398,N,12706.602977,E,16.8,270.5,030913,0.0,E,A*32
$GPGSA,A,2,02,04,05,07,10,12,13,25,29,,,,1.1,0.8,0.6*35
$GPGSV,4,1,14,02,75,001,37,04,48,101,35,05,55,277,36,07,12,092,25*78
$GPGSV,4,2,14,08,04,120,21,10,54,040,30,12,06,247,21,13,24,043,33*75
$GPGSV,4,3,14,25,05,285,20,29,14,319,35,,,,30,41,,,30*72
$GPGSV,4,4,14,42,,,33,50,,,32*7E
$GPGGA,112018.0,3724.137360,N,12706.595032,E,1,10,0.7,86.9,M,19.0,M,,*66
$GPRMC,112018.0,A,3724.137360,N,12706.595032,E,20.3,259.5,030913,0.0,E,A*34
$GPGSA,A,2,02,04,05,07,08,10,12,13,25,29,,,0.9,0.7,0.6*3B
$GPGSV,4,1,15,02,75,001,38,04,48,101,36,05,55,277,37,07,12,092,27*76
$GPGSV,4,2,15,08,04,120,18,09,09,126,24,10,54,040,33,12,06,247,22*7E
$GPGSV,4,3,15,13,24,043,30,25,05,285,22,26,22,191,36,29,14,319,35*7C
$GPGSV,4,4,15,,,,32,41,,,30,42,,,33*7C
$GPGGA,112019.0,3724.139844,N,12706.592372,E,1,12,0.6,84.7,M,19.0,M,,*6B
$GPRMC,112019.0,A,3724.139844,N,12706.592372,E,12.0,272.4,030913,0.0,E,A*3C
$GPGSA,A,2,02,04,05,07,08,09,10,12,13,25,26,29,0.8,0.6,0.6*36
$GPGSV,4,1,15,02,75,002,39,04,48,101,32,05,55,277,40,07,12,092,25*72
$GPGSV,4,2,15,08,04,120,22,09,09,126,23,10,54,040,38,12,06,247,20*79
$GPGSV,4,3,15,13,24,043,33,25,05,285,24,26,22,191,38,29,14,319,37*75
$GPGSV,4,4,15,30,,,35,,,,32,41,,,30*7F
$GPGGA,112020.0,3724.142088,N,12706.588180,E,1,12,0.6,82.3,M,19.0,M,,*63
$GPRMC,112020.0,A,3724.142088,N,12706.588180,E,10.2,291.2,030913,0.0,E,A*3D
$GPGSA,A,2,02,04,05,07,08,09,10,12,13,25,26,29,0.8,0.6,0.6*36
$GPGSV,4,1,15,02,75,002,34,04,48,101,35,05,55,277,40,07,12,092,27*7A
$GPGSV,4,2,15,08,04,120,19,09,09,126,22,10,54,040,36,12,06,247,20*7E
$GPGSV,4,3,15,13,24,043,27,25,05,285,28,26,22,191,34,29,14,319,35*72
$GPGSV,4,4,15,30,,,37,,,,34,41,,,30*7B
$GPGGA,112021.0,3724.144740,N,12706.585939,E,1,12,0.6,81.3,M,19.0,M,,*63
$GPRMC,112021.0,A,3724.144740,N,12706.585939,E,8.1,303.5,030913,0.0,E,A*09
$GPGSA,A,2,02,04,05,07,08,09,10,12,13,25,26,29,0.8,0.6,0.6*36
$GPGSV,4,1,15,02,75,002,34,04,48,101,36,05,55,277,40,07,12,092,27*79
$GPGSV,4,2,15,08,04,120,19,10,54,040,41,12,06,247,20,13,24,043,27*7D
$GPGSV,4,3,15,25,05,285,25,26,22,191,33,29,14,319,30,30,,,33*48
$GPGSV,4,4,15,,,,33,41,,,30,42,,,33*7D
$GPGGA,112022.0,3724.146719,N,12706.584958,E,1,12,0.6,81.5,M,19.0,M,,*6E
$GPRMC,112022.0,A,3724.146719,N,12706.584958,E,7.4,319.0,030913,0.0,E,A*06
$GPGSA,A,2,02,04,05,07,08,09,10,12,13,25,26,29,0.8,0.6,0.6*36
$GPGSV,4,1,15,02,75,002,32,04,48,101,31,05,55,277,44,07,12,092,34*7E
$GPGSV,4,2,15,08,04,120,20,10,54,040,39,12,06,247,21,13,24,043,33*7C
$GPGSV,4,3,15,25,05,285,29,26,22,191,34,29,14,319,34,30,,,35*41
$GPGSV,4,4,15,,,,32,41,,,30,42,,,33*7C
$GPGGA,112023.0,3724.147343,N,12706.585418,E,1,12,0.6,77.5,M,19.0,M,,*64
$GPRMC,112023.0,A,3724.147343,N,12706.585418,E,4.8,307.3,030913,0.0,E,A*06
$GPGSA,A,2,02,04,05,07,08,09,10,12,13,25,26,29,0.8,0.6,0.6*36
$GPGSV,4,1,15,02,75,002,36,04,48,101,35,05,55,277,40,07,12,092,36*78
$GPGSV,4,2,15,08,04,120,20,09,09,126,24,10,54,040,32,12,06,247,21*77
$GPGSV,4,3,15,13,24,043,31,25,05,285,30,26,22,191,35,29,14,319,35*7D
$GPGSV,4,4,15,30,,,33,,,,34,41,,,30*7F
$GPGGA,112024.0,3724.150907,N,12706.584917,E,1,12,0.6,77.0,M,19.0,M,,*69
$GPRMC,112024.0,A,3724.150907,N,12706.584917,E,8.5,345.2,030913,0.0,E,A*08
$GPGSA,A,2,02,04,05,07,08,09,10,12,13,25,26,29,0.8,0.6,0.6*36
$GPGSV,4,1,15,02,75,002,38,04,48,101,39,05,55,277,38,07,12,092,32*71
$GPGSV,4,2,15,08,04,119,19,09,09,126,30,10,54,040,31,12,06,247,21*71
$GPGSV,4,3,15,13,24,043,31,25,05,285,26,26,22,191,34,29,14,319,32*7C
$GPGSV,4,4,15,30,,,30,,,,33,41,,,30*7B
$GPGGA,112025.0,3724.153994,N,12706.585068,E,1,12,0.6,77.3,M,19.0,M,,*62
$GPRMC,112025.0,A,3724.153994,N,12706.585068,E,10.1,355.5,030913,0.0,E,A*3B
$GPGSA,A,2,02,04,05,07,08,09,10,12,13,25,26,29,0.8,0.6,0.6*36
$GPGSV,4,1,15,02,75,002,38,04,48,101,41,05,55,277,39,07,12,092,30*7D
$GPGSV,4,2,15,08,04,119,19,09,09,126,23,10,54,040,34,12,06,247,15*71
$GPGSV,4,3,15,13,24,043,35,25,05,284,21,26,22,191,37,29,14,319,31*7E
$GPGSV,4,4,15,30,,,30,,,,32,41,,,31*7B
$GPGGA,112026.0,3724.158014,N,12706.584933,E,1,12,0.6,76.5,M,19.0,M,,*6A
$GPRMC,112026.0,A,3724.158014,N,12706.584933,E,11.4,358.6,030913,0.0,E,A*3E
$GPGSA,A,2,02,04,05,07,08,09,10,12,13,25,26,29,0.8,0.6,0.6*36
$GPGSV,4,1,14,02,75,002,39,04,48,101,40,05,55,277,39,07,12,092,32*7E
$GPGSV,4,2,14,08,04,119,17,10,54,040,37,12,06,247,15,13,24,043,31*78
$GPGSV,4,3,14,25,05,284,20,26,22,191,35,29,14,319,34,30,,,29*44
$GPGSV,4,4,14,,,,33,41,,,31*7B
$GPGGA,112027.0,3724.161408,N,12706.584866,E,1,11,0.6,75.8,M,19.0,M,,*64
$GPRMC,112027.0,A,3724.161408,N,12706.584866,E,11.5,1.0,030913,0.0,E,A*35
$GPGSA,A,2,02,04,05,07,09,10,12,13,25,26,29,,0.8,0.6,0.6*3E
$GPGSV,4,1,15,02,75,002,38,04,48,101,40,05,55,277,39,07,12,092,33*7F
$GPGSV,4,2,15,08,04,119,17,09,09,126,25,10,54,040,36,12,06,247,19*77
$GPGSV,4,3,15,13,24,043,25,25,05,284,20,26,22,191,26,29,14,319,35*7A
$GPGSV,4,4,15,30,,,30,,,,34,41,,,31*7D
$GPGGA,112028.0,3724.165039,N,12706.584560,E,1,11,0.6,74.3,M,19.0,M,,*68
$GPRMC,112028.0,A,3724.165039,N,12706.584560,E,11.0,1.4,030913,0.0,E,A*32
$GPGSA,A,2,02,04,05,07,09,10,12,13,25,26,29,,0.8,0.6,0.6*3E
$GPGSV,4,1,15,02,75,002,38,04,48,101,39,05,55,277,39,07,12,092,35*77
$GPGSV,4,2,15,08,04,119,15,09,09,126,27,10,54,040,33,12,06,247,20*78
$GPGSV,4,3,15,13,24,043,35,25,05,284,22,26,22,191,25,29,14,319,34*7B
$GPGSV,4,4,15,30,,,30,,,,34,41,,,31*7D
$GPGGA,112029.0,3724.168368,N,12706.585381,E,1,11,0.6,73.7,M,19.0,M,,*68
$GPRMC,112029.0,A,3724.168368,N,12706.585381,E,10.3,6.1,030913,0.0,E,A*31
$GPGSA,A,2,02,04,05,07,09,10,12,13,25,26,29,,0.9,0.6,0.6*3F
$GPGSV,4,1,15,02,75,002,38,04,48,101,40,05,55,277,40,07,12,092,30*72
$GPGSV,4,2,15,08,04,119,17,09,09,126,22,10,54,040,37,12,06,247,19*71
$GPGSV,4,3,15,13,24,043,35,25,05,284,21,26,22,191,30,29,14,319,33*7B
$GPGSV,4,4,15,30,,,30,,,,35,41,,,31*7C
$GPGGA,112030.0,3724.171208,N,12706.586114,E,1,11,0.7,73.0,M,19.0,M,,*64
$GPRMC,112030.0,A,3724.171208,N,12706.586114,E,9.6,7.9,030913,0.0,E,A*0F
$GPGSA,A,2,02,04,05,07,09,10,12,13,25,26,29,,0.9,0.7,0.7*3F
$GPGSV,4,1,14,02,75,002,38,04,48,101,36,05,55,277,40,07,12,092,30*72
$GPGSV,4,2,14,08,04,119,17,10,54,040,37,12,06,247,19,13,24,043,34*71
$GPGSV,4,3,14,25,05,284,25,26,22,191,30,29,14,319,34,30,,,28*45
$GPGSV,4,4,14,,,,36,41,,,31*7E
$GPGGA,112031.0,3724.173530,N,12706.586398,E,1,11,0.7,72.6,M,19.0,M,,*6A
$GPRMC,112031.0,A,3724.173530,N,12706.586398,E,7.9,8.7,030913,0.0,E,A*06
$GPGSA,A,2,02,04,05,07,09,10,12,13,25,26,29,,0.9,0.7,0.7*3F
$GPGSV,4,1,14,02,75,002,38,04,48,101,35,05,55,277,40,07,12,092,30*71
$GPGSV,4,2,14,08,04,119,17,10,54,040,38,12,06,247,17,13,24,043,31*75
$GPGSV,4,3,14,25,05,284,28,26,22,191,31,29,14,319,35,30,,,30*41
$GPGSV,4,4,14,,,,36,41,,,31*7E
$GPGGA,112032.0,3724.175168,N,12706.586999,E,1,11,0.7,73.3,M,19.0,M,,*69
$GPRMC,112032.0,A,3724.175168,N,12706.586999,E,4.3,8.0,030913,0.0,E,A*0F
$GPGSA,A,2,02,04,05,07,09,10,12,13,25,26,29,,0.9,0.7,0.7*3F
$GPGSV,4,1,14,02,75,002,38,04,48,101,36,05,55,277,39,07,12,092,30*7C
$GPGSV,4,2,14,08,04,119,17,10,54,040,37,12,06,247,17,13,24,043,36*7D
$GPGSV,4,3,14,25,05,284,30,26,22,191,31,29,14,319,35,30,,,30*48
$GPGSV,4,4,14,,,,35,41,,,31*7D
$GPGGA,112033.0,3724.176362,N,12706.587747,E,1,11,0.7,72.2,M,19.0,M,,*6F
$GPRMC,112033.0,A,3724.176362,N,12706.587747,E,5.3,11.2,030913,0.0,E,A*32
$GPGSA,A,2,02,04,05,07,09,10,12,13,25,26,29,,0.9,0.7,0.7*3F
$GPGSV,4,1,15,02,75,002,39,04,48,101,30,05,55,277,39,07,12,092,27*7C
$GPGSV,4,2,15,08,04,119,17,09,09,126,21,10,54,040,36,12,06,247,17*7D
$GPGSV,4,3,15,13,24,043,33,25,05,284,25,26,22,191,31,29,14,319,35*7E
$GPGSV,4,4,15,30,,,29,,,,35,23,,,*72
$GPGGA,112034.0,3724.177647,N,12706.587997,E,1,11,0.7,72.0,M,19.0,M,,*6A
$GPRMC,112034.0,A,3724.177647,N,12706.587997,E,5.8,3.9,030913,0.0,E,A*06
$GPGSA,A,2,02,04,05,07,09,10,12,13,25,26,29,,0.9,0.7,0.7*3F
$GPGSV,4,1,15,02,75,002,39,04,48,101,30,05,55,277,40,07,12,092,25*70
$GPGSV,4,2,15,08,04,119,17,10,54,040,37,12,06,247,17,13,24,043,33*79
$GPGSV,4,3,15,25,05,284,24,26,22,191,27,29,14,319,35,30,,,33*48
$GPGSV,4,4,15,,,,34,17,03,158,,23,,,*42
$GPGGA,112035.0,3724.179426,N,12706.587877,E,1,10,0.7,72.8,M,19.0,M,,*66
$GPRMC,112035.0,A,3724.179426,N,12706.587877,E,5.8,9.0,030913,0.0,E,A*00
$GPGSA,A,2,02,04,05,07,09,10,13,25,26,29,,,1.0,0.7,0.7*34
$GPGSV,4,1,15,02,75,002,36,04,48,101,39,05,55,277,43,07,12,092,25*75
$GPGSV,4,2,15,09,09,126,23,10,54,040,37,12,06,247,21,13,24,043,28*71
$GPGSV,4,3,15,25,05,284,31,26,22,191,27,29,14,319,37,30,,,33*4E
$GPGSV,4,4,15,,,,34,08,04,119,,23,,,*4E
$GPGGA,112036.0,3724.180620,N,12706.587994,E,1,11,0.7,71.6,M,19.0,M,,*67
$GPRMC,112036.0,A,3724.180620,N,12706.587994,E,4.3,21.1,030913,0.0,E,A*3C
$GPGSA,A,2,02,04,05,07,09,10,12,13,25,26,29,,0.9,0.7,0.7*3F
$GPGSV,4,1,14,02,75,002,38,04,48,101,43,05,55,277,41,07,12,092,25*75
$GPGSV,4,2,14,10,54,040,39,12,06,247,24,13,24,043,30,25,05,284,28*70
$GPGSV,4,3,14,29,14,319,37,30,,,33,,,,27,08,04,119,*79
$GPGSV,4,4,14,17,03,158,,23,,,*44
$GPGGA,112037.0,3724.181406,N,12706.588698,E,1,11,0.7,71.3,M,19.0,M,,*68
$GPRMC,112037.0,A,3724.181406,N,12706.588698,E,3.6,26.3,030913,0.0,E,A*31
$GPGSA,A,2,02,04,05,07,09,10,12,13,25,26,29,,0.9,0.7,0.7*3F
$GPGSV,4,1,16,02,75,002,37,04,48,101,35,05,55,277,41,07,12,092,24*78
$GPGSV,4,2,16,09,09,126,25,10,54,040,37,12,06,247,22,13,24,043,28*77
$GPGSV,4,3,16,25,05,284,26,26,22,191,27,29,14,319,36,30,,,33*4A
$GPGSV,4,4,16,,,,28,08,04,119,,17,03,158,,23,,,*79
$GPGGA,112038.0,3724.182379,N,12706.589251,E,1,11,0.7,71.0,M,19.0,M,,*68
$GPRMC,112038.0,A,3724.182379,N,12706.589251,E,2.9,33.9,030913,0.0,E,A*32
$GPGSA,A,2,02,04,05,07,09,10,12,13,25,26,29,,1.0,0.7,0.7*37
$GPGSV,4,1,16,02,75,002,36,04,48,101,40,05,55,277,42,07,12,092,24*78
$GPGSV,4,2,16,09,09,126,22,10,54,040,34,12,06,247,27,13,24,043,29*77
$GPGSV,4,3,16,25,05,284,32,26,22,191,28,29,14,319,36,30,,,31*42
$GPGSV,4,4,16,,,,28,08,04,119,,17,03,158,,23,,,*79
$GPGGA,112039.0,3724.182787,N,12706.589942,E,1,11,0.8,71.0,M,19.0,M,,*6A
$GPRMC,112039.0,A,3724.182787,N,12706.589942,E,1.3,33.9,030913,0.0,E,A*36
$GPGSA,A,2,02,04,05,07,09,10,12,13,25,26,29,,1.1,0.8,0.7*39
$GPGSV,4,1,16,02,75,002,35,04,48,101,40,05,55,277,42,07,12,092,28*77
$GPGSV,4,2,16,09,09,126,26,10,54,040,33,12,06,247,30,13,24,043,28*73
$GPGSV,4,3,16,25,05,284,27,26,22,191,31,29,14,319,35,30,,,29*44
$GPGSV,4,4,16,,,,28,08,04,119,,17,03,158,,23,,,*79
$GPGGA,112040.0,3724.183426,N,12706.590416,E,1,11,0.8,70.7,M,19.0,M,,*6F
$GPRMC,112040.0,A,3724.183426,N,12706.590416,E,1.2,33.9,030913,0.0,E,A*34
$GPGSA,A,2,02,04,05,07,09,10,12,13,25,26,29,,1.1,0.8,0.7*39
$GPGSV,4,1,15,02,75,002,31,04,48,101,42,05,55,278,42,07,12,092,22*77
$GPGSV,4,2,15,09,09,126,23,10,54,040,33,12,06,247,31,13,24,043,24*78
$GPGSV,4,3,15,25,05,284,27,26,22,191,28,29,14,319,37,30,,,28*4C
$GPGSV,4,4,15,,,,29,08,04,119,,23,,,*42
$GPGGA,112041.0,3724.183920,N,12706.590845,E,1,11,0.8,70.8,M,19.0,M,,*60
$GPRMC,112041.0,A,3724.183920,N,12706.590845,E,1.4,33.9,030913,0.0,E,A*32
$GPGSA,A,2,02,04,05,07,09,10,12,13,25,26,29,,1.1,0.8,0.7*39
$GPGSV,4,1,16,02,75,002,38,04,48,101,42,05,55,278,40,07,12,092,25*78
$GPGSV,4,2,16,09,09,126,22,10,54,040,32,12,06,247,26,13,24,043,27*7E
$GPGSV,4,3,16,25,05,284,29,26,22,191,30,29,14,319,36,30,,,35*45
$GPGSV,4,4,16,,,,31,08,04,119,,17,03,158,,23,,,*71
$GPGGA,112042.0,3724.184508,N,12706.591515,E,1,11,0.8,70.8,M,19.0,M,,*6B
$GPRMC,112042.0,A,3724.184508,N,12706.591515,E,2.1,50.1,030913,0.0,E,A*32
$GPGSA,A,2,02,04,05,07,09,10,12,13,25,26,29,,1.1,0.8,0.7*39
$GPGSV,4,1,15,02,75,002,36,04,48,101,31,05,55,278,36,07,12,092,35*71
$GPGSV,4,2,15,10,54,040,41,12,06,247,26,13,24,043,23,25,05,284,25*73
$GPGSV,4,3,15,26,22,191,32,29,14,319,33,30,,,33,,,,32*71
$GPGSV,4,4,15,08,04,119,,17,03,158,,23,,,*70
$GPGGA,112043.0,3724.185158,N,12706.592899,E,1,11,0.8,69.2,M,19.0,M,,*62
$GPRMC,112043.0,A,3724.185158,N,12706.592899,E,3.2,58.5,030913,0.0,E,A*37
$GPGSA,A,2,02,04,05,07,09,10,12,13,25,26,29,,1.1,0.8,0.7*39
$GPGSV,4,1,15,02,75,002,35,04,48,101,38,05,55,278,41,07,12,092,34*7A
$GPGSV,4,2,15,10,54,040,40,12,06,247,28,13,24,043,25,25,05,284,25*7A
$GPGSV,4,3,15,26,22,191,39,29,14,319,39,30,,,38,,,,32*7B
$GPGSV,4,4,15,08,04,119,,09,09,126,,23,,,*7C
$GPGGA,112044.0,3724.185997,N,12706.595550,E,1,11,0.8,67.3,M,19.0,M,,*6E
$GPRMC,112044.0,A,3724.185997,N,12706.595550,E,6.4,67.9,030913,0.0,E,A*37
$GPGSA,A,2,02,04,05,07,09,10,12,13,25,26,29,,1.1,0.8,0.7*39
$GPGSV,4,1,16,02,75,002,38,04,48,101,33,05,55,278,34,07,12,092,29*71
$GPGSV,4,2,16,10,54,040,42,12,06,247,32,13,24,043,26,25,05,284,30*77
$GPGSV,4,3,16,26,22,191,40,29,14,319,31,30,,,44,,,,33*74
$GPGSV,4,4,16,08,04,119,,09,09,126,,17,03,158,,23,,,*46
$GPGGA,112045.0,3724.186725,N,12706.599415,E,1,11,0.8,66.8,M,19.0,M,,*6D
$GPRMC,112045.0,A,3724.186725,N,12706.599415,E,9.7,77.8,030913,0.0,E,A*32
$GPGSA,A,2,02,04,05,07,09,10,12,13,25,26,29,,1.1,0.8,0.7*39
$GPGSV,4,1,14,02,75,002,38,04,48,101,36,05,55,278,34,07,12,092,30*7E
$GPGSV,4,2,14,10,54,040,42,12,06,247,33,25,05,284,28,26,22,191,41*72
$GPGSV,4,3,14,29,14,319,30,30,,,45,,,,29,08,04,119,*71
$GPGSV,4,4,14,09,09,126,,23,,,*48
$GPGGA,112046.0,3724.187289,N,12706.607923,E,1,11,0.8,66.2,M,19.0,M,,*6A
$GPRMC,112046.0,A,3724.187289,N,12706.607923,E,13.9,87.9,030913,0.0,E,A*04
$GPGSA,A,2,02,04,05,07,09,10,12,13,25,26,29,,1.1,0.8,0.7*39
$GPGSV,4,1,16,02,75,002,39,04,48,101,37,05,55,278,32,07,12,092,30*7A
$GPGSV,4,2,16,10,54,040,45,12,06,247,27,13,24,043,24,25,05,284,23*74
$GPGSV,4,3,16,26,22,191,43,29,14,319,31,30,,,41,,,,30*71
$GPGSV,4,4,16,08,04,119,,09,09,126,,17,03,158,,23,,,*46
$GPGGA,112047.0,3724.187146,N,12706.614001,E,1,11,0.8,65.1,M,19.0,M,,*60
$GPRMC,112047.0,A,3724.187146,N,12706.614001,E,15.8,92.1,030913,0.0,E,A*05
$GPGSA,A,2,02,04,05,07,09,10,12,13,25,26,29,,1.1,0.8,0.7*39
$GPGSV,4,1,16,02,75,002,39,04,48,101,32,05,55,278,30,07,12,092,26*7A
$GPGSV,4,2,16,10,54,040,42,12,06,247,22,13,24,043,25,25,05,284,23*77
$GPGSV,4,3,16,26,22,191,39,29,14,319,24,30,,,34,,,,31*7B
$GPGSV,4,4,16,08,04,119,,09,09,126,,17,03,158,,23,,,*46
$GPGGA,112048.0,3724.187047,N,12706.620216,E,1,11,0.8,64.6,M,19.0,M,,*6A
$GPRMC,112048.0,A,3724.187047,N,12706.620216,E,17.2,91.4,030913,0.0,E,A*07
$GPGSA,A,2,02,04,05,07,09,10,12,13,25,26,29,,1.1,0.8,0.7*39
$GPGSV,4,1,15,02,75,002,39,04,48,101,32,05,55,278,30,07,12,092,21*7E
$GPGSV,4,2,15,10,54,040,42,13,24,043,27,25,05,284,22,26,22,191,36*7B
$GPGSV,4,3,15,29,14,319,26,30,,,42,,,,29,08,04,119,*70
$GPGSV,4,4,15,09,09,126,,17,03,158,,23,,,*70
$GPGGA,112049.0,3724.187387,N,12706.626902,E,1,10,0.8,64.3,M,19.0,M,,*68
$GPRMC,112049.0,A,3724.187387,N,12706.626902,E,19.2,87.2,030913,0.0,E,A*0E
$GPGSA,A,2,02,04,05,07,10,12,13,25,26,29,,,1.1,0.8,0.7*30
$GPGSV,4,1,15,02,75,002,39,04,48,101,36,05,55,278,30,07,12,092,24*7F
$GPGSV,4,2,15,10,54,040,42,13,24,043,36,26,22,191,39,29,14,319,23*7C
$GPGSV,4,3,15,30,,,41,,,,29,08,04,119,,09,09,126,*77
$GPGSV,4,4,15,12,06,247,,17,03,158,,23,,,*71
$GPGGA,112050.0,3724.187824,N,12706.633725,E,1,10,0.8,63.8,M,19.0,M,,*61
$GPRMC,112050.0,A,3724.187824,N,12706.633725,E,20.4,86.6,030913,0.0,E,A*02
$GPGSA,A,2,02,04,05,07,10,12,13,25,26,29,,,1.1,0.8,0.7*30
$GPGSV,4,1,14,02,75,002,39,04,48,101,33,05,55,278,32,07,12,092,28*75
$GPGSV,4,2,14,10,54,040,42,13,24,043,24,26,22,191,36,30,,,43*41
$GPGSV,4,3,14,,,,27,08,04,119,,09,09,126,,12,06,247,*4A
$GPGSV,4,4,14,23,,,,25,05,284,*41
$GPGGA,112051.0,3724.187824,N,12706.641427,E,1,10,0.8,63.3,M,19.0,M,,*6F
$GPRMC,112051.0,A,3724.187824,N,12706.641427,E,21.8,91.5,030913,0.0,E,A*0F
$GPGSA,A,2,02,04,05,07,10,12,13,25,26,29,,,1.1,0.8,0.7*30
$GPGSV,4,1,14,02,75,002,40,04,48,101,36,05,55,278,35,07,12,092,30*70
$GPGSV,4,2,14,10,54,040,43,13,24,043,22,26,22,191,36,30,,,35*47
$GPGSV,4,3,14,,,,28,08,04,119,,12,06,247,,17,03,158,*49
$GPGSV,4,4,14,23,,,,25,05,284,*41
$GPGGA,112052.0,3724.187292,N,12706.649452,E,1,10,0.8,63.0,M,19.0,M,,*62
$GPRMC,112052.0,A,3724.187292,N,12706.649452,E,22.5,95.5,030913,0.0,E,A*0B
$GPGSA,A,2,02,04,05,07,10,12,13,25,26,29,,,1.1,0.8,0.7*30
$GPGSV,4,1,16,02,75,002,39,04,48,101,36,05,55,278,36,07,12,092,28*76
$GPGSV,4,2,16,10,54,040,43,13,24,043,25,26,22,191,24,30,,,37*43
$GPGSV,4,3,16,,,,29,08,04,119,,09,09,126,,12,06,247,*46
$GPGSV,4,4,16,17,03,158,,23,,,,25,05,284,,29,14,319,*4F
$GPGGA,112053.0,3724.187531,N,12706.658218,E,1,10,0.8,63.8,M,19.0,M,,*6D
$GPRMC,112053.0,A,3724.187531,N,12706.658218,E,25.2,90.2,030913,0.0,E,A*0E
$GPGSA,A,2,02,04,05,07,10,12,13,25,26,29,,,1.1,0.8,0.7*30
$GPGSV,4,1,16,02,75,002,33,04,48,101,33,05,56,278,35,07,12,092,31*71
$GPGSV,4,2,16,09,09,126,22,10,54,040,38,13,23,043,29,25,05,284,22*71
$GPGSV,4,3,16,26,22,191,26,29,14,319,29,30,,,32,,,,23*7D
$GPGSV,4,4,16,08,04,119,,12,06,247,,17,03,158,,23,,,*47
$GPGGA,112054.0,3724.188059,N,12706.667931,E,1,10,0.8,61.6,M,19.0,M,,*6E
$GPRMC,112054.0,A,3724.188059,N,12706.667931,E,27.0,88.5,030913,0.0,E,A*0F
$GPGSA,A,2,02,04,05,07,09,10,13,25,26,29,,,1.1,0.8,0.7*3A
$GPGSV,4,1,15,02,75,002,39,04,48,101,38,05,56,278,35,07,12,092,28*7B
$GPGSV,4,2,15,09,09,126,29,10,54,040,39,13,23,043,34,26,22,191,34*72
$GPGSV,4,3,15,29,14,319,30,30,,,36,,,,29,08,04,119,*74
$GPGSV,4,4,15,12,06,247,,17,03,158,,23,,,*71
$GPGGA,112055.0,3724.188852,N,12706.676897,E,1,10,0.8,61.3,M,19.0,M,,*64
$GPRMC,112055.0,A,3724.188852,N,12706.676897,E,25.4,87.9,030913,0.0,E,A*05
$GPGSA,A,2,02,04,05,07,09,10,13,25,26,29,,,1.1,0.8,0.7*3A
$GPGSV,4,1,14,02,75,002,40,04,48,101,37,05,56,278,37,07,12,092,30*70
$GPGSV,4,2,14,10,54,040,46,13,23,043,33,26,22,191,40,30,,,41*47
$GPGSV,4,3,14,,,,32,08,04,119,,12,06,247,,17,03,158,*42
$GPGSV,4,4,14,23,,,,25,05,284,*41
$GPGGA,112056.0,3724.188658,N,12706.687402,E,1,10,0.8,59.6,M,19.0,M,,*63
$GPRMC,112056.0,A,3724.188658,N,12706.687402,E,28.5,89.3,030913,0.0,E,A*04
$GPGSA,A,2,02,04,05,07,09,10,13,25,26,29,,,1.1,0.8,0.7*3A
$GPGSV,4,1,15,02,75,002,40,04,48,101,38,05,56,278,36,07,12,092,30*7F
$GPGSV,4,2,15,09,09,126,31,10,54,040,40,13,23,043,32,26,22,191,28*7E
$GPGSV,4,3,15,30,,,36,,,,30,08,04,119,,12,06,247,*7E
$GPGSV,4,4,15,17,03,158,,23,,,,25,05,284,*79
$GPGGA,112057.0,3724.188808,N,12706.697428,E,1,10,0.8,59.9,M,19.0,M,,*6F
$GPRMC,112057.0,A,3724.188808,N,12706.697428,E,28.6,91.8,030913,0.0,E,A*06
$GPGSA,A,2,02,04,05,07,09,10,13,25,26,29,,,1.1,0.8,0.7*3A
$GPGSV,4,1,16,02,75,002,40,04,48,101,37,05,56,278,36,07,12,092,31*72
$GPGSV,4,2,16,09,09,126,28,10,54,040,43,13,23,043,35,25,05,284,22*7A
$GPGSV,4,3,16,26,22,191,29,30,,,44,,,,28,08,04,119,*73
$GPGSV,4,4,16,12,06,247,,17,03,158,,23,,,,29,14,319,*47
$GPGGA,112058.0,3724.188656,N,12706.707281,E,1,10,0.8,59.9,M,19.0,M,,*68
$GPRMC,112058.0,A,3724.188656,N,12706.707281,E,28.6,90.4,030913,0.0,E,A*0C
$GPGSA,A,2,02,04,05,07,09,10,13,25,26,29,,,1.1,0.8,0.7*3A
$GPGSV,4,1,14,02,75,002,38,04,48,101,37,05,56,278,37,07,12,092,29*77
$GPGSV,4,2,14,10,54,040,43,13,23,043,33,26,22,191,34,29,14,319,21*71
$GPGSV,4,3,14,30,,,41,,,,32,08,04,119,,12,06,247,*7D
$GPGSV,4,4,14,17,03,158,,23,,,*44
$GPGGA,112059.0,3724.188313,N,12706.717293,E,1,10,0.8,60.0,M,19.0,M,,*6C
$GPRMC,112059.0,A,3724.188313,N,12706.717293,E,28.4,90.4,030913,0.0,E,A*09
$GPGSA,A,2,02,04,05,07,09,10,13,25,26,29,,,1.1,0.8,0.7*3A
$GPGSV,4,1,15,02,75,002,38,04,48,101,38,05,56,278,36,07,12,092,31*71
$GPGSV,4,2,15,10,54,040,42,13,23,043,30,25,05,284,23,26,22,191,24*78
$GPGSV,4,3,15,29,14,319,22,,,,30,08,04,119,,09,09,126,*4C
$GPGSV,4,4,15,12,06,247,,17,03,158,,23,,,*71
$GPGGA,112100.0,3724.189322,N,12706.727585,E,1,10,0.8,58.0,M,19.0,M,,*6A
$GPRMC,112100.0,A,3724.189322,N,12706.727585,E,27.9,89.6,030913,0.0,E,A*0C
$GPGSA,A,2,02,04,05,07,09,10,13,25,26,29,,,1.1,0.8,0.7*3A
$GPGSV,4,1,14,02,75,002,40,04,48,101,38,05,56,278,35,07,12,092,31*7C
$GPGSV,4,2,14,10,54,040,44,13,23,043,35,26,22,191,35,29,14,319,23*73
$GPGSV,4,3,14,,,,31,08,04,119,,09,09,126,,12,06,247,*4D
$GPGSV,4,4,14,17,03,158,,23,,,*44
$GPGGA,112101.0,3724.189394,N,12706.737103,E,1,10,0.8,56.6,M,19.0,M,,*65
$GPRMC,112101.0,A,3724.189394,N,12706.737103,E,27.2,90.2,030913,0.0,E,A*0C
$GPGSA,A,2,02,04,05,07,09,10,13,25,26,29,,,1.1,0.8,0.7*3A
$GPGSV,4,1,14,02,75,002,39,04,48,101,39,05,56,278,34,07,12,092,28*7A
$GPGSV,4,2,14,10,54,040,43,13,23,043,35,26,22,191,31,,,,33*44
$GPGSV,4,3,14,08,04,119,,09,09,126,,12,06,247,,17,03,158,*76
$GPGSV,4,4,14,23,,,,25,05,284,*41
$GPGGA,112102.0,3724.189502,N,12706.746229,E,1,10,0.8,56.2,M,19.0,M,,*66
$GPRMC,112102.0,A,3724.189502,N,12706.746229,E,26.4,90.1,030913,0.0,E,A*0F
$GPGSA,A,2,02,04,05,07,09,10,13,25,26,29,,,1.1,0.8,0.7*3A
$GPGSV,4,1,15,02,75,002,39,04,48,101,37,05,56,278,37,07,12,092,26*78
$GPGSV,4,2,15,10,54,040,42,13,23,043,35,26,22,191,26,29,14,319,30*74
$GPGSV,4,3,15,,,,33,08,04,119,,09,09,126,,12,06,247,*4E
$GPGSV,4,4,15,17,03,158,,23,,,,25,05,284,*79
$GPGGA,112103.0,3724.189780,N,12706.755302,E,1,10,0.8,55.3,M,19.0,M,,*67
$GPRMC,112103.0,A,3724.189780,N,12706.755302,E,26.1,90.1,030913,0.0,E,A*09
$GPGSA,A,2,02,04,05,07,09,10,13,25,26,29,,,1.1,0.8,0.7*3A
$GPGSV,4,1,14,02,75,002,39,04,48,101,38,05,56,278,36,07,12,092,22*73
$GPGSV,4,2,14,10,54,040,43,13,23,043,35,29,14,319,21,,,,33*4D
$GPGSV,4,3,14,08,04,119,,09,09,126,,12,06,247,,17,03,158,*76
$GPGSV,4,4,14,23,,,,25,05,284,*41
$GPGGA,112104.0,3724.189888,N,12706.764256,E,1,10,0.8,54.8,M,19.0,M,,*6F
$GPRMC,112104.0,A,3724.189888,N,12706.764256,E,25.6,90.3,030913,0.0,E,A*0D
$GPGSA,A,2,02,04,05,07,09,10,13,25,26,29,,,1.1,0.8,0.7*3A
$GPGSV,3,1,12,02,75,002,38,04,48,101,35,05,56,278,38,10,54,040,44*7B
$GPGSV,3,2,12,13,23,043,33,26,22,191,37,,,,34,08,04,119,*44
$GPGSV,3,3,12,09,09,126,,12,06,247,,23,,,,25,05,284,*46
$GPGGA,112105.0,3724.190159,N,12706.773288,E,1,09,0.9,55.9,M,19.0,M,,*6F
$GPRMC,112105.0,A,3724.190159,N,12706.773288,E,24.7,88.0,030913,0.0,E,A*0E
$GPGSA,A,2,02,04,05,07,10,13,25,26,29,,,,1.2,0.9,0.8*3E
$GPGSV,4,1,15,02,75,002,39,04,48,101,29,05,56,278,36,07,12,092,22*72
$GPGSV,4,2,15,10,54,040,43,13,23,043,36,26,22,191,37,,,,35*46
$GPGSV,4,3,15,08,04,119,,09,09,126,,12,06,247,,17,03,158,*77
$GPGSV,4,4,15,23,,,,25,05,284,,29,14,319,*75
$GPGGA,112106.0,3724.190977,N,12706.781953,E,1,08,1.0,55.7,M,19.0,M,,*6F
$GPRMC,112106.0,A,3724.190977,N,12706.781953,E,24.4,85.2,030913,0.0,E,A*05
$GPGSA,A,2,02,04,05,07,10,13,26,29,,,,,1.3,1.0,0.8*30
$GPGSV,3,1,12,02,75,002,39,04,48,101,30,05,56,278,33,07,12,092,22*7F
$GPGSV,3,2,12,10,54,040,42,13,23,043,37,26,22,191,37,,,,33*40
$GPGSV,3,3,12,08,04,119,,12,06,247,,23,,,,25,05,284,*46
$GPGGA,112107.0,3724.191189,N,12706.790298,E,1,08,1.0,55.7,M,19.0,M,,*6A
$GPRMC,112107.0,A,3724.191189,N,12706.790298,E,24.9,84.8,030913,0.0,E,A*06
$GPGSA,A,2,02,04,05,07,10,13,26,29,,,,,1.3,1.0,0.8*30
$GPGSV,4,1,15,02,75,002,39,04,48,101,32,05,56,278,33,07,12,092,25*7A
$GPGSV,4,2,15,10,54,040,42,13,23,043,35,17,03,158,25,26,22,191,37*7C
$GPGSV,4,3,15,29,14,319,24,,,,33,08,04,119,,09,09,126,*49
$GPGSV,4,4,15,12,06,247,,23,,,,25,05,284,*74
$GPGGA,112108.0,3724.191585,N,12706.798972,E,1,08,1.0,55.5,M,19.0,M,,*68
$GPRMC,112108.0,A,3724.191585,N,12706.798972,E,25.3,85.6,030913,0.0,E,A*02
$GPGSA,A,2,02,04,05,07,10,13,26,29,,,,,1.3,1.0,0.8*30
$GPGSV,4,1,13,02,75,002,39,04,48,101,31,05,56,278,32,10,54,040,43*75
$GPGSV,4,2,13,12,06,247,20,13,23,043,36,26,22,191,37,29,14,319,26*72
$GPGSV,4,3,13,,,,33,08,04,119,,09,09,126,,23,,,*7D
$GPGSV,4,4,13,25,05,284,*47
$GPGGA,112109.0,3724.192594,N,12706.807024,E,1,09,0.9,55.0,M,19.0,M,,*65
$GPRMC,112109.0,A,3724.192594,N,12706.807024,E,25.5,84.9,030913,0.0,E,A*0B
$GPGSA,A,2,02,04,05,07,10,12,13,26,29,,,,1.2,0.9,0.8*3A
$GPGSV,4,1,14,02,75,002,38,04,48,101,35,05,56,278,31,09,09,126,23*73
$GPGSV,4,2,14,10,54,040,44,13,23,043,37,26,22,191,29,29,14,319,27*78
$GPGSV,4,3,14,,,,32,07,12,092,,08,04,119,,17,03,158,*49
$GPGSV,4,4,14,23,,,,25,05,284,*41
$GPGGA,112110.0,3724.193529,N,12706.815387,E,1,10,0.8,54.9,M,19.0,M,,*62
$GPRMC,112110.0,A,3724.193529,N,12706.815387,E,25.1,82.1,030913,0.0,E,A*07
$GPGSA,A,2,02,04,05,07,09,10,12,13,26,29,,,1.1,0.8,0.7*3E
$GPGSV,4,1,15,02,75,002,38,04,48,101,36,05,56,278,35,09,09,126,27*71
$GPGSV,4,2,15,10,54,040,42,13,23,043,37,26,22,191,25,29,14,319,33*76
$GPGSV,4,3,15,,,,33,07,12,092,,08,04,119,,12,06,247,*44
$GPGSV,4,4,15,17,03,158,,23,,,,25,05,284,*79
$GPGGA,112111.0,3724.195054,N,12706.823816,E,1,10,0.8,53.5,M,19.0,M,,*67
$GPRMC,112111.0,A,3724.195054,N,12706.823816,E,24.5,78.6,030913,0.0,E,A*0E
$GPGSA,A,2,02,04,05,07,09,10,12,13,26,29,,,1.1,0.8,0.7*3E
$GPGSV,4,1,14,02,75,002,37,04,48,101,37,05,56,278,37,07,12,092,23*72
$GPGSV,4,2,14,10,54,040,39,13,23,043,38,26,22,191,26,29,14,319,35*71
$GPGSV,4,3,14,,,,34,08,04,119,,12,06,247,,17,03,158,*44
$GPGSV,4,4,14,23,,,,25,05,284,*41
$GPGGA,112112.0,3724.196504,N,12706.832024,E,1,10,0.8,53.8,M,19.0,M,,*63
$GPRMC,112112.0,A,3724.196504,N,12706.832024,E,24.0,76.4,030913,0.0,E,A*0E
$GPGSA,A,2,02,04,05,07,09,10,12,13,26,29,,,1.1,0.8,0.7*3E
$GPGSV,4,1,14,02,75,002,38,04,48,101,40,05,56,278,35,07,12,092,26*7A
$GPGSV,4,2,14,10,54,040,40,12,06,247,29,13,23,043,36,26,22,191,31*7B
$GPGSV,4,3,14,,,,34,08,04,119,,09,09,126,,17,03,158,*45
$GPGSV,4,4,14,23,,,,25,05,284,*41
$GPGGA,112113.0,3724.197416,N,12706.840351,E,1,10,0.8,53.4,M,19.0,M,,*69
$GPRMC,112113.0,A,3724.197416,N,12706.840351,E,22.9,83.1,030913,0.0,E,A*08
$GPGSA,A,2,02,04,05,07,09,10,12,13,26,29,,,1.1,0.8,0.7*3E
$GPGSV,4,1,15,02,75,002,38,04,48,101,38,05,56,278,38,07,12,092,25*7A
$GPGSV,4,2,15,10,54,040,38,12,06,247,26,13,23,043,29,26,22,191,30*75
$GPGSV,4,3,15,,,,34,08,04,119,,09,09,126,,17,03,158,*44
$GPGSV,4,4,15,23,,,,25,05,284,,29,14,319,*75
$GPGGA,112114.0,3724.199567,N,12706.848502,E,1,10,0.8,53.3,M,19.0,M,,*68
$GPRMC,112114.0,A,3724.199567,N,12706.848502,E,22.8,73.5,030913,0.0,E,A*04
$GPGSA,A,2,02,04,05,07,09,10,12,13,26,29,,,1.1,0.8,0.7*3E
$GPGSV,4,1,14,02,75,004,37,04,48,101,37,05,56,278,39,07,12,091,29*73
$GPGSV,4,2,14,09,09,126,25,10,54,040,37,13,23,043,25,26,22,191,32*77
$GPGSV,4,3,14,,,,35,08,04,119,,17,03,158,,23,,,*70
$GPGSV,4,4,14,25,05,284,,29,14,319,*75
$GPGGA,112115.0,3724.201762,N,12706.856230,E,1,10,0.8,53.5,M,19.0,M,,*63
$GPRMC,112115.0,A,3724.201762,N,12706.856230,E,22.6,70.6,030913,0.0,E,A*07
$GPGSA,A,2,02,04,05,07,09,10,12,13,26,29,,,1.1,0.8,0.7*3E
$GPGSV,4,1,14,02,75,004,37,04,48,101,36,05,56,278,40,07,12,091,24*71
$GPGSV,4,2,14,10,54,040,37,13,23,043,28,25,05,284,25,26,22,191,35*74
$GPGSV,4,3,14,29,14,319,24,,,,33,08,04,119,,12,06,247,*49
$GPGSV,4,4,14,17,03,158,,23,,,*44
$GPGGA,112116.0,3724.204372,N,12706.863640,E,1,11,0.8,53.7,M,19.0,M,,*66
$GPRMC,112116.0,A,3724.204372,N,12706.863640,E,22.2,70.2,030913,0.0,E,A*01
$GPGSA,A,2,02,04,05,07,09,10,12,13,25,26,29,,1.1,0.8,0.7*39
$GPGSV,4,1,14,02,75,004,37,04,48,101,36,05,56,278,39,07,12,091,26*7D
$GPGSV,4,2,14,10,54,040,38,13,23,043,24,26,22,191,29,29,14,319,21*77
$GPGSV,4,3,14,,,,33,08,04,119,,09,09,126,,12,06,247,*4F
$GPGSV,4,4,14,17,03,158,,23,,,*44
$GPGGA,112117.0,3724.206715,N,12706.871099,E,1,11,0.8,53.4,M,19.0,M,,*62
$GPRMC,112117.0,A,3724.206715,N,12706.871099,E,23.0,65.2,030913,0.0,E,A*01
$GPGSA,A,2,02,04,05,07,09,10,12,13,25,26,29,,1.1,0.8,0.7*39
$GPGSV,4,1,15,02,75,004,36,04,48,101,36,05,56,278,39,07,12,091,37*7D
$GPGSV,4,2,15,10,54,040,38,13,23,043,32,26,22,191,24,29,14,319,25*78
$GPGSV,4,3,15,,,,33,08,04,119,,09,09,126,,12,06,247,*4E
$GPGSV,4,4,15,17,03,158,,23,,,,25,05,284,*79
$GPGGA,112118.0,3724.210155,N,12706.878703,E,1,11,0.8,52.7,M,19.0,M,,*67
$GPRMC,112118.0,A,3724.210155,N,12706.878703,E,24.3,62.3,030913,0.0,E,A*04
$GPGSA,A,2,02,04,05,07,09,10,12,13,25,26,29,,1.1,0.8,0.7*39
$GPGSV,4,1,15,02,75,004,37,04,48,101,36,05,56,278,38,07,12,091,32*78
$GPGSV,4,2,15,10,54,040,39,13,23,043,37,26,22,191,25,29,14,319,23*7B
$GPGSV,4,3,15,,,,34,08,04,119,,09,09,126,,12,06,247,*49
$GPGSV,4,4,15,17,03,158,,23,,,,25,05,284,*79
$GPGGA,112119.0,3724.213875,N,12706.886647,E,1,11,0.8,51.5,M,19.0,M,,*6F
$GPRMC,112119.0,A,3724.213875,N,12706.886647,E,26.0,60.9,030913,0.0,E,A*04
$GPGSA,A,2,02,04,05,07,09,10,12,13,25,26,29,,1.1,0.8,0.7*39
$GPGSV,4,1,15,02,75,004,38,04,48,101,34,05,56,278,37,07,12,091,28*71
$GPGSV,4,2,15,10,54,040,38,13,23,043,39,26,22,191,26,29,14,319,21*75
$GPGSV,4,3,15,,,,33,08,04,119,,09,09,126,,12,06,247,*4E
$GPGSV,4,4,15,17,03,158,,23,,,,25,05,284,*79
$GPGGA,112120.0,3724.217821,N,12706.894622,E,1,11,0.8,51.6,M,19.0,M,,*63
$GPRMC,112120.0,A,3724.217821,N,12706.894622,E,26.4,58.9,030913,0.0,E,A*04
$GPGSA,A,2,02,04,05,07,09,10,12,13,25,26,29,,1.1,0.8,0.7*39
$GPGSV,4,1,15,02,75,004,38,04,48,101,31,05,56,278,38,07,12,091,21*72
$GPGSV,4,2,15,10,54,040,39,13,23,043,39,26,22,191,31,29,14,319,22*71
$GPGSV,4,3,15,,,,33,08,04,119,,09,09,126,,12,06,247,*4E
$GPGSV,4,4,15,17,03,158,,23,,,,25,05,284,*79
$GPGGA,112121.0,3724.221549,N,12706.902356,E,1,09,0.9,51.2,M,19.0,M,,*60
$GPRMC,112121.0,A,3724.221549,N,12706.902356,E,25.3,61.2,030913,0.0,E,A*0E
$GPGSA,A,2,02,04,05,07,10,13,25,26,29,,,,1.2,0.9,0.8*3E
$GPGSV,4,1,14,02,75,004,36,04,48,101,33,05,56,278,37,07,12,091,32*72
$GPGSV,4,2,14,10,54,040,39,13,23,043,39,26,22,191,28,,,,33*4D
$GPGSV,4,3,14,08,04,119,,09,09,126,,12,06,247,,17,03,158,*76
$GPGSV,4,4,14,23,,,,25,05,284,*41
$GPGGA,112122.0,3724.225853,N,12706.909587,E,1,09,0.9,51.3,M,19.0,M,,*61
$GPRMC,112122.0,A,3724.225853,N,12706.909587,E,25.8,58.0,030913,0.0,E,A*0D
$GPGSA,A,2,02,04,05,07,10,13,25,26,29,,,,1.2,0.9,0.8*3E
$GPGSV,4,1,15,02,75,004,37,04,47,101,32,05,56,278,37,07,12,091,29*76
$GPGSV,4,2,15,08,04,119,25,10,54,040,39,13,23,043,39,26,22,191,34*73
$GPGSV,4,3,15,,,,33,09,09,126,,12,06,247,,17,03,158,*42
$GPGSV,4,4,15,23,,,,25,05,284,,29,14,319,*75
$GPGGA,112123.0,3724.230158,N,12706.917541,E,1,09,0.9,51.5,M,19.0,M,,*65
$GPRMC,112123.0,A,3724.230158,N,12706.917541,E,25.3,59.9,030913,0.0,E,A*0C
$GPGSA,A,2,02,04,05,07,08,10,13,26,29,,,,1.2,0.9,0.8*31
$GPGSV,4,1,15,02,75,004,37,04,47,101,34,05,56,278,37,07,12,091,24*7D
$GPGSV,4,2,15,08,04,119,22,10,54,040,39,13,23,043,40,26,22,191,35*7B
$GPGSV,4,3,15,29,14,319,34,,,,33,09,09,126,,12,06,247,*49
$GPGSV,4,4,15,17,03,158,,23,,,,25,05,284,*79
$GPGGA,112124.0,3724.234296,N,12706.922770,E,1,09,0.9,49.3,M,19.0,M,,*6E
$GPRMC,112124.0,A,3724.234296,N,12706.922770,E,21.9,55.1,030913,0.0,E,A*02
$GPGSA,A,2,02,04,05,07,08,10,13,26,29,,,,1.2,0.9,0.8*31
$GPGSV,4,1,15,02,75,004,37,04,47,101,33,05,56,278,37,07,12,091,30*7F
$GPGSV,4,2,15,08,04,119,23,10,54,040,39,13,23,043,39,17,03,158,24*70
$GPGSV,4,3,15,26,22,191,25,29,14,319,29,,,,32,09,09,126,*4A
$GPGSV,4,4,15,12,06,247,,23,,,,25,05,284,*74
$GPGGA,112125.0,3724.237589,N,12706.928187,E,1,09,0.9,49.5,M,19.0,M,,*67
$GPRMC,112125.0,A,3724.237589,N,12706.928187,E,19.5,56.2,030913,0.0,E,A*0A
$GPGSA,A,2,02,04,05,07,08,10,13,26,29,,,,1.2,0.9,0.8*31
$GPGSV,4,1,13,02,75,004,35,04,47,101,32,05,56,278,36,07,12,091,29*73
$GPGSV,4,2,13,08,04,119,23,10,54,040,39,13,23,043,38,17,03,158,27*74
$GPGSV,4,3,13,29,14,319,23,,,,33,12,06,247,,23,,,*7D
$GPGSV,4,4,13,25,05,284,*47
$GPGGA,112126.0,3724.240383,N,12706.932814,E,1,09,0.9,49.8,M,19.0,M,,*6D
$GPRMC,112126.0,A,3724.240383,N,12706.932814,E,16.6,55.8,030913,0.0,E,A*08
$GPGSA,A,2,02,04,05,07,08,10,13,26,29,,,,1.2,0.9,0.8*31
$GPGSV,4,1,13,02,75,004,37,04,47,101,32,05,56,278,37,07,12,091,25*7C
$GPGSV,4,2,13,08,04,119,24,10,54,040,40,13,23,043,39,26,22,191,24*7B
$GPGSV,4,3,13,29,14,319,27,,,,32,12,06,247,,23,,,*78
$GPGSV,4,4,13,25,05,284,*47
$GPGGA,112127.0,3724.242570,N,12706.936586,E,1,09,0.9,49.6,M,19.0,M,,*68
$GPRMC,112127.0,A,3724.242570,N,12706.936586,E,13.5,56.9,030913,0.0,E,A*07
$GPGSA,A,2,02,04,05,07,08,10,13,26,29,,,,1.2,0.9,0.8*31
$GPGSV,4,1,14,02,75,004,37,04,47,101,29,05,56,278,37,07,12,091,23*77
$GPGSV,4,2,14,08,04,119,24,10,54,040,39,13,23,043,40,26,22,191,28*70
$GPGSV,4,3,14,29,14,319,28,,,,33,12,06,247,,17,03,158,*49
$GPGSV,4,4,14,23,,,,25,05,284,*41
$GPGGA,112128.0,3724.244384,N,12706.939322,E,1,09,0.9,49.5,M,19.0,M,,*68
$GPRMC,112128.0,A,3724.244384,N,12706.939322,E,10.2,53.9,030913,0.0,E,A*05
$GPGSA,A,2,02,04,05,07,08,10,13,26,29,,,,1.2,0.9,0.8*31
$GPGSV,4,1,15,02,75,004,38,04,47,101,30,05,56,278,38,07,12,091,23*7E
$GPGSV,4,2,15,08,04,119,25,10,54,040,39,13,23,043,38,26,22,191,30*76
$GPGSV,4,3,15,29,14,319,30,,,,34,09,09,126,,12,06,247,*4A
$GPGSV,4,4,15,17,03,158,,23,,,,25,05,284,*79
$GPGGA,112129.0,3724.246360,N,12706.941366,E,1,09,0.9,49.8,M,19.0,M,,*63
$GPRMC,112129.0,A,3724.246360,N,12706.941366,E,8.0,56.8,030913,0.0,E,A*3C
$GPGSA,A,2,02,04,05,07,08,10,13,26,29,,,,1.2,0.9,0.8*31
$GPGSV,4,1,14,02,75,004,37,04,47,101,31,05,56,278,36,08,04,119,24*71
$GPGSV,4,2,14,10,54,040,39,12,06,247,21,13,23,043,39,17,03,158,26*70
$GPGSV,4,3,14,26,22,191,27,29,14,319,28,,,,33,09,09,126,*49
$GPGSV,4,4,14,23,,,,25,05,284,*41
$GPGGA,112130.0,3724.247691,N,12706.942760,E,1,10,0.8,50.8,M,19.0,M,,*61
$GPRMC,112130.0,A,3724.247691,N,12706.942760,E,6.1,49.9,030913,0.0,E,A*3F
$GPGSA,A,2,02,04,05,07,08,10,12,13,26,29,,,1.1,0.8,0.7*3F
$GPGSV,4,1,13,02,75,004,37,04,47,101,26,05,56,278,39,07,12,091,28*7A
$GPGSV,4,2,13,08,05,119,23,10,54,040,39,12,06,247,22,13,23,043,39*7C
$GPGSV,4,3,13,25,05,284,26,26,23,191,29,29,14,319,28,,,,33*4C
$GPGSV,4,4,13,23,,,*7A
$GPGGA,112131.0,3724.248894,N,12706.944523,E,1,11,0.8,52.0,M,19.0,M,,*6C
$GPRMC,112131.0,A,3724.248894,N,12706.944523,E,4.7,61.7,030913,0.0,E,A*39
$GPGSA,A,2,02,04,05,07,08,10,12,13,25,26,29,,1.1,0.8,0.7*38
$GPGSV,4,1,14,02,75,004,38,04,47,101,30,05,56,278,39,07,12,091,32*7E
$GPGSV,4,2,14,08,05,119,23,10,54,040,38,12,06,247,22,13,23,043,39*7A
$GPGSV,4,3,14,25,05,284,26,26,23,191,27,29,14,319,27,,,,33*4A
$GPGSV,4,4,14,17,03,158,,23,,,*44
$GPGGA,112132.0,3724.249770,N,12706.945410,E,1,11,0.8,52.6,M,19.0,M,,*6D
$GPRMC,112132.0,A,3724.249770,N,12706.945410,E,2.4,53.8,030913,0.0,E,A*35
$GPGSA,A,2,02,04,05,07,08,10,12,13,25,26,29,,1.1,0.8,0.7*38
$GPGSV,3,1,12,02,75,004,39,05,56,278,40,07,12,091,34,08,05,119,23*77
$GPGSV,3,2,12,09,09,126,27,10,54,040,36,13,23,043,35,25,05,284,21*77
$GPGSV,3,3,12,26,23,191,32,29,14,319,31,,,,33,23,,,*71
$GPGGA,112133.0,3724.251200,N,12706.946145,E,1,12,0.8,53.6,M,19.0,M,,*63
$GPRMC,112133.0,A,3724.251200,N,12706.946145,E,0.0,53.8,030913,0.0,E,A*3F
$GPGSA,A,2,02,04,05,07,08,09,10,12,13,25,26,29,1.0,0.8,0.7*30
$GPGSV,4,1,14,02,75,004,38,04,47,101,26,05,56,278,39,07,12,091,32*79
$GPGSV,4,2,14,08,05,119,22,09,09,126,29,10,54,040,36,13,23,043,34*72
$GPGSV,4,3,14,25,05,284,22,26,23,191,31,29,14,319,31,,,,31*4C
$GPGSV,4,4,14,12,06,247,,23,,,*49
$GPGGA,112134.0,3724.252238,N,12706.946718,E,1,12,0.8,52.0,M,19.0,M,,*65
$GPRMC,112134.0,A,3724.252238,N,12706.946718,E,0.0,53.8,030913,0.0,E,A*3E
$GPGSA,A,2,02,04,05,07,08,09,10,12,13,25,26,29,1.0,0.8,0.7*30
$GPGSV,4,1,14,02,75,004,39,04,47,101,24,05,56,278,40,07,12,091,32*74
$GPGSV,4,2,14,08,05,119,26,09,09,126,29,10,54,040,37,12,06,247,22*70
$GPGSV,4,3,14,13,23,043,35,25,05,284,24,26,23,191,31,29,14,319,28*72
$GPGSV,4,4,14,,,,31,23,,,*7F
$GPGGA,112135.0,3724.252924,N,12706.946819,E,1,12,0.8,51.5,M,19.0,M,,*6A
$GPRMC,112135.0,A,3724.252924,N,12706.946819,E,0.0,53.8,030913,0.0,E,A*37
$GPGSA,A,2,02,04,05,07,08,09,10,12,13,25,26,29,1.0,0.8,0.7*30
$GPGSV,4,1,13,02,75,004,38,04,47,101,27,05,56,278,40,07,12,091,33*70
$GPGSV,4,2,13,08,05,119,26,09,09,126,29,10,54,040,37,13,23,043,33*77
$GPGSV,4,3,13,25,05,284,25,26,23,191,32,29,14,319,29,,,,31*46
$GPGSV,4,4,13,23,,,*7A
$GPGGA,112136.0,3724.253558,N,12706.947174,E,1,12,0.8,51.3,M,19.0,M,,*6A
$GPRMC,112136.0,A,3724.253558,N,12706.947174,E,0.0,53.8,030913,0.0,E,A*31
$GPGSA,A,2,02,04,05,07,08,09,10,12,13,25,26,29,1.0,0.8,0.7*30
$GPGSV,4,1,14,02,75,004,39,04,47,101,29,05,56,278,40,07,12,091,31*7A
$GPGSV,4,2,14,08,05,119,26,09,09,126,29,10,54,040,38,12,06,247,21*7C
$GPGSV,4,3,14,13,23,043,33,26,23,191,31,29,14,319,31,,,,32*47
$GPGSV,4,4,14,17,03,158,,23,,,*44
$GPGGA,112137.0,3724.254239,N,12706.947147,E,1,12,0.8,50.2,M,19.0,M,,*6C
$GPRMC,112137.0,A,3724.254239,N,12706.947147,E,0.0,53.8,030913,0.0,E,A*37
$GPGSA,A,2,02,04,05,07,08,09,10,12,13,25,26,29,1.0,0.8,0.7*30
$GPGSV,4,1,13,02,75,004,39,04,47,101,28,05,56,278,38,07,12,091,32*70
$GPGSV,4,2,13,08,05,119,21,09,09,126,28,10,54,040,39,13,23,043,32*7E
$GPGSV,4,3,13,26,23,191,30,29,14,319,32,,,,31,23,,,*74
$GPGSV,4,4,13,25,05,284,*47
$GPGGA,112138.0,3724.254911,N,12706.947272,E,1,12,0.8,49.2,M,19.0,M,,*6F
$GPRMC,112138.0,A,3724.254911,N,12706.947272,E,0.0,53.8,030913,0.0,E,A*3C
$GPGSA,A,2,02,04,05,07,08,09,10,12,13,25,26,29,1.0,0.8,0.7*30
$GPGSV,4,1,15,02,75,004,39,04,47,101,24,05,56,278,39,07,12,091,32*7B
$GPGSV,4,2,15,08,05,119,23,09,09,126,26,10,54,040,38,13,23,043,34*73
$GPGSV,4,3,15,25,05,284,20,26,23,191,32,29,14,319,32,,,,30*4E
$GPGSV,4,4,15,12,06,247,,17,03,158,,23,,,*71
$GPGGA,112139.0,3724.255911,N,12706.947634,E,1,12,0.8,48.3,M,19.0,M,,*69
$GPRMC,112139.0,A,3724.255911,N,12706.947634,E,0.0,53.8,030913,0.0,E,A*3A
$GPGSA,A,2,02,04,05,07,08,09,10,12,13,25,26,29,1.0,0.8,0.7*30
$GPGSV,4,1,14,02,75,004,39,04,47,101,26,05,56,278,39,07,12,091,32*78
$GPGSV,4,2,14,08,05,119,23,09,09,126,26,10,54,040,38,13,23,043,34*72
$GPGSV,4,3,14,25,05,284,21,26,23,191,28,29,14,319,33,,,,29*4C
$GPGSV,4,4,14,12,06,247,,23,,,*49
$GPGGA,112140.0,3724.256427,N,12706.947735,E,1,12,0.8,47.7,M,19.0,M,,*67
$GPRMC,112140.0,A,3724.256427,N,12706.947735,E,0.0,53.8,030913,0.0,E,A*3F
$GPGSA,A,2,02,04,05,07,08,09,10,12,13,25,26,29,1.0,0.8,0.7*30
$GPGSV,4,1,13,02,75,004,38,04,47,101,26,05,56,278,40,07,12,091,31*73
$GPGSV,4,2,13,08,05,119,24,09,09,126,27,10,54,040,38,13,23,043,34*73
$GPGSV,4,3,13,26,23,191,29,29,14,319,31,,,,29,12,06,247,*43
$GPGSV,4,4,13,23,,,*7A
$GPGGA,112141.0,3724.256809,N,12706.947830,E,1,12,0.8,47.3,M,19.0,M,,*68
$GPRMC,112141.0,A,3724.256809,N,12706.947830,E,0.0,53.8,030913,0.0,E,A*34
$GPGSA,A,2,02,04,05,07,08,09,10,12,13,25,26,29,1.0,0.8,0.7*30
$GPGSV,4,1,14,02,75,004,38,04,47,101,28,05,56,278,39,07,12,091,32*77
$GPGSV,4,2,14,08,05,119,20,09,09,126,28,10,54,040,37,13,23,043,34*70
$GPGSV,4,3,14,25,05,284,24,26,23,191,29,29,14,319,31,,,,29*4A
$GPGSV,4,4,14,12,06,247,,23,,,*49
$GPGGA,112142.0,3724.257140,N,12706.948126,E,1,12,0.8,47.9,M,19.0,M,,*65
$GPRMC,112142.0,A,3724.257140,N,12706.948126,E,0.0,53.8,030913,0.0,E,A*33
$GPGSA,A,2,02,04,05,07,08,09,10,12,13,25,26,29,1.0,0.8,0.7*30
$GPGSV,4,1,14,02,75,004,38,04,47,101,28,05,56,278,39,07,12,091,32*77
$GPGSV,4,2,14,08,05,119,24,09,09,126,29,10,54,040,37,12,06,247,21*71
$GPGSV,4,3,14,13,23,043,34,25,05,284,27,26,23,191,28,29,14,319,31*70
$GPGSV,4,4,14,,,,31,23,,,*7F
$GPGGA,112143.0,3724.257245,N,12706.948178,E,1,11,0.8,48.0,M,19.0,M,,*6C
$GPRMC,112143.0,A,3724.257245,N,12706.948178,E,0.0,53.8,030913,0.0,E,A*3F
$GPGSA,A,2,02,04,05,07,08,09,10,12,13,25,26,,1.1,0.8,0.7*3A
$GPGSV,4,1,14,02,75,004,37,04,47,101,28,05,56,278,39,07,12,091,31*7B
$GPGSV,4,2,14,08,05,119,23,09,09,126,29,10,54,040,38,12,06,247,23*7B
$GPGSV,4,3,14,13,23,043,36,25,05,284,26,26,23,191,28,29,14,319,30*72
$GPGSV,4,4,14,,,,31,23,,,*7F
$GPGGA,112144.0,3724.257299,N,12706.948157,E,1,11,0.8,48.0,M,19.0,M,,*67
$GPRMC,112144.0,A,3724.257299,N,12706.948157,E,0.0,53.8,030913,0.0,E,A*34
$GPGSA,A,2,02,04,05,07,08,09,10,12,13,25,26,,1.1,0.8,0.7*3A
$GPGSV,4,1,15,02,75,004,38,04,47,101,29,05,56,278,39,07,12,091,32*77
$GPGSV,4,2,15,08,05,119,22,09,09,126,30,10,54,040,38,12,06,247,22*72
$GPGSV,4,3,15,13,23,043,35,17,03,158,24,25,05,284,25,26,23,191,28*7A
$GPGSV,4,4,15,29,14,319,30,,,,31,23,,,*48
$GPGGA,112145.0,3724.257302,N,12706.948159,E,1,12,0.8,48.0,M,19.0,M,,*68
$GPRMC,112145.0,A,3724.257302,N,12706.948159,E,0.0,53.8,030913,0.0,E,A*38
$GPGSA,A,2,02,04,05,07,08,09,10,12,13,25,26,29,1.0,0.8,0.7*30
$GPGSV,4,1,13,02,75,004,38,04,47,101,28,05,56,278,39,07,12,091,30*72
$GPGSV,4,2,13,08,05,119,23,09,09,126,28,10,54,040,39,12,06,247,25*7A
$GPGSV,4,3,13,13,23,043,34,26,23,191,28,29,14,319,30,,,,32*4E
$GPGSV,4,4,13,23,,,*7A
$GPGGA,112146.0,3724.257280,N,12706.948191,E,1,12,0.8,48.1,M,19.0,M,,*65
$GPRMC,112146.0,A,3724.257280,N,12706.948191,E,0.0,53.8,030913,0.0,E,A*34
$GPGSA,A,2,02,04,05,07,08,09,10,12,13,25,26,29,1.0,0.8,0.7*30
$GPGSV,4,1,14,02,75,004,38,04,47,101,29,05,56,278,39,07,12,091,31*75
$GPGSV,4,2,14,08,05,119,25,09,09,126,28,10,54,040,39,12,06,247,24*7A
$GPGSV,4,3,14,13,23,043,34,26,23,191,26,29,14,319,30,,,,30*45
$GPGSV,4,4,14,23,,,,25,05,284,*41
$GPGGA,112147.0,3724.257276,N,12706.948192,E,1,12,0.8,48.1,M,19.0,M,,*6E
$GPRMC,112147.0,A,3724.257276,N,12706.948192,E,0.0,53.8,030913,0.0,E,A*3F
$GPGSA,A,2,02,04,05,07,08,09,10,12,13,25,26,29,1.0,0.8,0.7*30
$GPGSV,4,1,15,02,75,004,38,04,47,101,28,05,56,278,39,07,12,091,30*74
$GPGSV,4,2,15,08,05,119,25,09,09,126,28,10,54,040,40,12,06,247,23*72
$GPGSV,4,3,15,13,23,043,35,25,05,284,24,26,23,191,26,29,14,319,25*78
$GPGSV,4,4,15,,,,31,17,03,158,,23,,,*47
$GPGGA,112148.0,3724.257270,N,12706.948199,E,1,12,0.8,48.1,M,19.0,M,,*6C
$GPRMC,112148.0,A,3724.257270,N,12706.948199,E,0.0,53.8,030913,0.0,E,A*3D
$GPGSA,A,2,02,04,05,07,08,09,10,12,13,25,26,29,1.0,0.8,0.7*30
$GPGSV,4,1,13,02,75,004,38,04,47,101,28,05,56,278,39,07,12,091,30*72
$GPGSV,4,2,13,08,05,119,25,09,09,126,27,10,54,040,40,12,06,247,24*7C
$GPGSV,4,3,13,13,23,043,34,25,05,284,25,29,14,319,27,,,,30*47
$GPGSV,4,4,13,23,,,*7A
$GPGGA,112149.0,3724.257266,N,12706.948202,E,1,12,0.8,48.1,M,19.0,M,,*6B
$GPRMC,112149.0,A,3724.257266,N,12706.948202,E,0.0,53.8,030913,0.0,E,A*3A
$GPGSA,A,2,02,04,05,07,08,09,10,12,13,25,26,29,1.0,0.8,0.7*30
$GPGSV,4,1,13,02,75,004,37,04,47,101,28,05,56,278,39,07,12,091,32*7F
$GPGSV,4,2,13,08,05,119,23,09,09,126,28,10,53,040,40,12,06,247,23*75
$GPGSV,4,3,13,13,23,043,36,25,05,284,25,26,23,191,25,29,14,319,29*73
$GPGSV,4,4,13,,,,31*79
$GPGGA,112150.0,3724.257260,N,12706.948207,E,1,12,0.8,48.1,M,19.0,M,,*60
$GPRMC,112150.0,A,3724.257260,N,12706.948207,E,0.0,53.8,030913,0.0,E,A*31
$GPGSA,A,2,02,04,05,07,08,09,10,12,13,25,26,29,1.0,0.8,0.7*30
$GPGSV,3,1,12,02,75,004,37,04,47,101,27,05,56,278,38,07,12,091,33*76
$GPGSV,3,2,12,08,05,119,22,09,09,126,28,10,53,040,40,12,06,247,24*75
$GPGSV,3,3,12,13,23,043,36,25,05,284,22,29,14,319,28,,,,31*4A
$GPGGA,112151.0,3724.257260,N,12706.948208,E,1,12,0.8,48.1,M,19.0,M,,*6E
$GPRMC,112151.0,A,3724.257260,N,12706.948208,E,0.0,53.8,030913,0.0,E,A*3F
$GPGSA,A,2,02,04,05,07,08,09,10,12,13,25,26,29,1.0,0.8,0.7*30
$GPGSV,3,1,12,02,75,004,37,04,47,101,28,05,56,278,38,07,12,091,34*7E
$GPGSV,3,2,12,08,05,119,25,09,09,126,29,10,53,040,41,12,06,247,22*74
$GPGSV,3,3,12,13,23,043,35,25,05,284,23,29,14,319,29,,,,32*4A
$GPGGA,112152.0,3724.257262,N,12706.948205,E,1,12,0.8,48.1,M,19.0,M,,*62
$GPRMC,112152.0,A,3724.257262,N,12706.948205,E,0.0,53.8,030913,0.0,E,A*33
$GPGSA,A,2,02,04,05,07,08,09,10,12,13,25,26,29,1.0,0.8,0.7*30
$GPGSV,4,1,14,02,75,004,38,04,47,101,31,05,56,278,38,07,12,091,33*7F
$GPGSV,4,2,14,08,05,119,24,09,09,126,27,10,53,040,40,12,06,247,22*7B
$GPGSV,4,3,14,13,23,043,35,17,03,158,23,25,05,284,25,26,23,191,25*71
$GPGSV,4,4,14,29,14,319,25,,,,29*45
$GPGGA,112153.0,3724.257263,N,12706.948201,E,1,12,0.8,48.1,M,19.0,M,,*66
$GPRMC,112153.0,A,3724.257263,N,12706.948201,E,0.0,53.8,030913,0.0,E,A*37
$GPGSA,A,2,02,04,05,07,08,09,10,12,13,25,26,29,1.0,0.8,0.7*30
$GPGSV,4,1,13,02,75,004,37,04,47,101,31,05,56,278,37,07,12,091,33*78
$GPGSV,4,2,13,08,05,119,25,09,09,126,28,10,53,040,40,12,06,247,22*72
$GPGSV,4,3,13,13,23,043,36,25,05,284,26,26,23,191,25,29,14,319,24*7D
$GPGSV,4,4,13,,,,30*78
$GPGGA,112154.0,3724.257266,N,12706.948196,E,1,12,0.8,48.1,M,19.0,M,,*69
$GPRMC,112154.0,A,3724.257266,N,12706.948196,E,0.0,53.8,030913,0.0,E,A*38
$GPGSA,A,2,02,04,05,07,08,09,10,12,13,25,26,29,1.0,0.8,0.7*30
$GPGSV,4,1,14,02,75,004,37,04,47,101,29,05,56,278,37,07,12,091,33*76
$GPGSV,4,2,14,08,05,119,24,09,09,126,26,10,53,042,40,12,06,247,22*78
$GPGSV,4,3,14,13,23,043,36,25,05,284,24,26,23,191,24,29,14,319,27*7A
$GPGSV,4,4,14,,,,30,17,03,158,*46
$GPGGA,112155.0,3724.257269,N,12706.948188,E,1,12,0.8,48.1,M,19.0,M,,*68
$GPRMC,112155.0,A,3724.257269,N,12706.948188,E,0.0,53.8,030913,0.0,E,A*39
$GPGSA,A,2,02,04,05,07,08,09,10,12,13,25,26,29,1.0,0.8,0.7*30
$GPGSV,3,1,12,02,75,004,37,04,47,101,29,05,56,278,36,07,12,091,33*76
$GPGSV,3,2,12,08,05,119,24,09,09,126,25,10,53,042,40,13,23,043,36*7F
$GPGSV,3,3,12,17,03,158,21,25,05,284,22,29,14,319,27,,,,31*4E
$GPGGA,112156.0,3724.257266,N,12706.948182,E,1,12,0.8,48.1,M,19.0,M,,*6E
$GPRMC,112156.0,A,3724.257266,N,12706.948182,E,0.0,53.8,030913,0.0,E,A*3F
$GPGSA,A,2,02,04,05,07,08,09,10,12,13,25,26,29,1.0,0.8,0.7*30
$GPGSV,4,1,14,02,75,004,36,04,47,101,29,05,56,278,35,07,12,091,32*74
$GPGSV,4,2,14,08,05,119,23,09,09,126,26,10,53,042,40,13,23,043,36*7A
$GPGSV,4,3,14,17,03,158,20,25,05,284,22,29,14,319,27,,,,31*4E
$GPGSV,4,4,14,12,06,247,,26,23,191,*74
$GPGGA,112157.0,3724.257260,N,12706.948178,E,1,12,0.8,48.1,M,19.0,M,,*6C
$GPRMC,112157.0,A,3724.257260,N,12706.948178,E,0.0,53.8,030913,0.0,E,A*3D
$GPGSA,A,2,02,04,05,07,08,09,10,12,13,25,26,29,1.0,0.8,0.7*30
$GPGSV,4,1,14,02,75,004,35,04,47,101,28,05,56,278,36,07,12,091,29*7F
$GPGSV,4,2,14,08,05,119,23,09,09,126,26,10,53,042,40,13,23,043,36*7A
$GPGSV,4,3,14,17,03,158,21,25,05,284,22,29,14,319,25,,,,31*4D
$GPGSV,4,4,14,12,06,247,,26,23,191,*74
$GPGGA,112158.0,3724.257251,N,12706.948177,E,1,12,0.8,48.1,M,19.0,M,,*6E
$GPRMC,112158.0,A,3724.257251,N,12706.948177,E,0.0,53.8,030913,0.0,E,A*3F
$GPGSA,A,2,02,04,05,07,08,09,10,12,13,25,26,29,1.0,0.8,0.7*30
$GPGSV,4,1,14,02,75,004,36,04,47,101,29,05,56,278,35,07,12,091,29*7E
$GPGSV,4,2,14,08,05,119,24,09,09,126,26,10,53,042,40,13,23,043,36*7D
$GPGSV,4,3,14,17,03,158,21,25,05,284,22,29,14,319,25,,,,30*4C
$GPGSV,4,4,14,12,06,247,,26,23,191,*74
$GPGGA,112159.0,3724.257241,N,12706.948174,E,1,12,0.8,48.1,M,19.0,M,,*6D
$GPRMC,112159.0,A,3724.257241,N,12706.948174,E,0.0,53.8,030913,0.0,E,A*3C
$GPGSA,A,2,02,04,05,07,08,09,10,12,13,25,26,29,1.0,0.8,0.7*30
$GPGSV,3,1,11,02,75,004,36,04,47,101,27,05,56,278,35,07,12,091,30*7A
$GPGSV,3,2,11,08,05,119,24,09,09,126,28,10,53,042,40,13,23,043,37*70
$GPGSV,3,3,11,29,14,319,26,,,,30,12,06,247,*7F
$GPGGA,112200.0,3724.257234,N,12706.948170,E,1,12,0.8,48.1,M,19.0,M,,*64
$GPRMC,112200.0,A,3724.257234,N,12706.948170,E,0.0,53.8,030913,0.0,E,A*35
$GPGSA,A,2,02,04,05,07,08,09,10,12,13,25,26,29,1.0,0.8,0.7*30
$GPGSV,4,1,14,02,75,004,36,04,47,101,27,05,56,278,35,07,12,091,30*78
$GPGSV,4,2,14,08,05,119,22,09,09,126,28,10,53,042,40,13,23,043,37*74
$GPGSV,4,3,14,17,03,158,22,25,05,284,21,29,14,319,26,,,,30*4F
$GPGSV,4,4,14,12,06,247,,26,23,191,*74
$GPGGA,112201.0,3724.257232,N,12706.948162,E,1,12,0.8,48.1,M,19.0,M,,*60
$GPRMC,112201.0,A,3724.257232,N,12706.948162,E,0.0,53.8,030913,0.0,E,A*31
$GPGSA,A,2,02,04,05,07,08,09,10,12,13,25,26,29,1.0,0.8,0.7*30
$GPGSV,4,1,14,02,75,004,36,04,47,101,27,05,56,278,35,07,12,091,31*79
$GPGSV,4,2,14,08,05,119,25,09,09,126,28,10,53,042,40,13,23,043,37*73
$GPGSV,4,3,14,17,03,158,22,25,05,284,26,29,14,319,27,,,,30*49
$GPGSV,4,4,14,12,06,247,,26,23,191,*74
$GPGGA,112202.0,3724.257230,N,12706.948156,E,1,10,1.1,48.1,M,19.0,M,,*6C
$GPRMC,112202.0,A,3724.257230,N,12706.948156,E,0.0,53.8,030913,0.0,E,A*37
$GPGSA,A,2,02,04,05,07,08,09,10,13,25,29,,,1.3,1.1,0.7*3C
$GPGSV,4,1,14,02,75,004,35,04,47,101,26,05,56,278,35,07,12,091,31*7B
$GPGSV,4,2,14,08,05,119,24,09,09,126,28,10,53,042,39,12,06,247,21*7B
$GPGSV,4,3,14,13,23,043,37,17,03,158,21,25,05,284,26,29,14,319,26*78
$GPGSV,4,4,14,,,,30,26,23,191,*43
$GPGGA,112203.0,3724.257233,N,12706.948148,E,1,11,0.9,48.1,M,19.0,M,,*69
$GPRMC,112203.0,A,3724.257233,N,12706.948148,E,0.0,53.8,030913,0.0,E,A*3A
$GPGSA,A,2,02,04,05,07,08,09,10,12,13,25,29,,1.1,0.9,0.7*34
$GPGSV,3,1,12,02,75,004,36,04,47,101,25,05,56,278,35,07,12,091,33*78
$GPGSV,3,2,12,08,05,119,23,09,09,126,27,10,53,042,40,13,23,043,37*7B
$GPGSV,3,3,12,17,03,158,22,25,05,284,24,29,14,319,26,,,,30*4B
$GPGGA,112204.0,3724.257238,N,12706.948138,E,1,11,0.9,48.1,M,19.0,M,,*62
$GPRMC,112204.0,A,3724.257238,N,12706.948138,E,0.0,53.8,030913,0.0,E,A*31
$GPGSA,A,2,02,04,05,07,08,09,10,12,13,25,29,,1.1,0.9,0.7*34
$GPGSV,3,1,12,02,75,004,36,04,47,101,25,05,56,278,35,07,12,091,33*78
$GPGSV,3,2,12,08,05,119,24,09,09,126,27,10,53,042,40,13,23,043,37*7C
$GPGSV,3,3,12,17,03,158,23,29,14,319,26,,,,31,12,06,247,*45
$GPGGA,112205.0,3724.257240,N,12706.948132,E,1,11,0.9,48.1,M,19.0,M,,*66
$GPRMC,112205.0,A,3724.257240,N,12706.948132,E,0.0,53.8,030913,0.0,E,A*35
$GPGSA,A,2,02,04,05,07,08,09,10,12,13,25,29,,1.1,0.9,0.7*34
$GPGSV,4,1,13,02,75,005,35,04,47,101,24,05,56,278,35,07,12,091,33*7D
$GPGSV,4,2,13,08,05,119,25,09,09,126,27,10,53,042,40,12,06,247,21*7C
$GPGSV,4,3,13,13,23,043,38,17,03,158,21,29,14,319,24,,,,30*49
$GPGSV,4,4,13,25,05,284,*47
$GPGGA,112206.0,3724.257239,N,12706.948126,E,1,11,0.9,48.1,M,19.0,M,,*6E
$GPRMC,112206.0,A,3724.257239,N,12706.948126,E,0.0,53.8,030913,0.0,E,A*3D
$GPGSA,A,2,02,04,05,07,08,09,10,12,13,25,29,,1.1,0.9,0.7*34
$GPGSV,3,1,12,02,75,005,36,04,47,101,24,05,56,278,35,07,12,091,33*78
$GPGSV,3,2,12,08,05,119,22,09,09,126,28,10,53,042,40,13,23,043,37*75
$GPGSV,3,3,12,17,03,158,22,25,05,284,22,29,14,319,24,,,,31*4E
$GPGGA,112207.0,3724.257237,N,12706.948119,E,1,11,0.9,48.2,M,19.0,M,,*6E
$GPRMC,112207.0,A,3724.257237,N,12706.948119,E,0.0,53.8,030913,0.0,E,A*3E
$GPGSA,A,2,02,04,05,07,08,09,10,12,13,25,29,,1.1,0.9,0.7*34
$GPGSV,4,1,13,02,75,005,36,04,47,101,23,05,56,278,35,07,12,091,32*78
$GPGSV,4,2,13,08,05,119,22,09,09,126,29,10,53,042,40,13,23,043,37*72
$GPGSV,4,3,13,17,03,158,22,25,05,284,22,29,14,319,24,,,,30*49
$GPGSV,4,4,13,12,06,247,*4F
$GPGGA,112208.0,3724.257234,N,12706.948112,E,1,11,0.9,48.2,M,19.0,M,,*69
$GPRMC,112208.0,A,3724.257234,N,12706.948112,E,0.0,53.8,030913,0.0,E,A*39
$GPGSA,A,2,02,04,05,07,08,09,10,12,13,25,29,,1.1,0.9,0.7*34
$GPGSV,3,1,12,02,75,005,36,04,47,101,22,05,56,278,35,07,12,091,32*7F
$GPGSV,3,2,12,08,05,119,23,09,09,126,29,10,53,042,39,13,23,043,37*7B
$GPGSV,3,3,12,17,03,158,21,29,14,319,22,,,,30,12,06,247,*42
$GPGGA,112209.0,3724.257232,N,12706.948106,E,1,11,0.9,48.2,M,19.0,M,,*6B
$GPRMC,112209.0,A,3724.257232,N,12706.948106,E,0.0,53.8,030913,0.0,E,A*3B
$GPGSA,A,2,02,04,05,07,08,09,10,12,13,25,29,,1.1,0.9,0.7*34
$GPGSV,4,1,13,02,75,005,35,04,47,101,22,05,56,278,34,07,12,091,31*78
$GPGSV,4,2,13,08,05,119,22,09,09,126,29,10,53,042,39,13,23,043,37*7C
$GPGSV,4,3,13,17,03,158,22,25,05,284,21,29,14,319,22,,,,31*4D
$GPGSV,4,4,13,12,06,247,*4F
$GPGGA,112210.0,3724.257230,N,12706.948100,E,1,11,0.9,48.2,M,19.0,M,,*67
$GPRMC,112210.0,A,3724.257230,N,12706.948100,E,0.0,53.8,030913,0.0,E,A*37
$GPGSA,A,2,02,04,05,07,08,09,10,12,13,25,29,,1.1,0.9,0.7*34
$GPGSV,4,1,14,02,75,005,36,04,47,101,23,05,56,278,35,07,12,091,29*75
$GPGSV,4,2,14,08,05,119,22,09,09,126,29,10,53,042,39,13,23,043,37*7B
$GPGSV,4,3,14,17,03,158,21,25,05,284,22,29,14,319,23,,,,30*4A
$GPGSV,4,4,14,12,06,247,,26,23,191,*74
$GPGGA,112211.0,3724.257227,N,12706.948098,E,1,11,0.9,48.2,M,19.0,M,,*60
$GPRMC,112211.0,A,3724.257227,N,12706.948098,E,0.0,53.8,030913,0.0,E,A*30
$GPGSA,A,2,02,04,05,07,08,09,10,12,13,25,29,,1.1,0.9,0.7*34
$GPGSV,3,1,12,02,75,005,36,04,47,101,21,05,56,278,35,07,12,091,28*77
$GPGSV,3,2,12,08,05,119,24,09,09,126,29,10,53,042,39,13,23,043,37*7C
$GPGSV,3,3,12,17,03,158,22,25,05,284,25,,,,30,12,06,247,*4F
$GPGGA,112212.0,3724.257249,N,12706.948086,E,1,11,0.9,48.2,M,19.0,M,,*64
$GPRMC,112212.0,A,3724.257249,N,12706.948086,E,0.0,53.8,030913,0.0,E,A*34
$GPGSA,A,2,02,04,05,07,08,09,10,12,13,25,29,,1.1,0.9,0.7*34
$GPGSV,3,1,12,02,75,005,36,04,47,101,22,05,56,278,35,07,12,091,28*74
$GPGSV,3,2,12,08,05,119,24,09,09,126,29,10,53,042,39,13,23,043,37*7C
$GPGSV,3,3,12,25,05,284,24,29,14,319,23,,,,31,12,06,247,*42
$GPGGA,112213.0,3724.257273,N,12706.948073,E,1,10,1.1,48.2,M,19.0,M,,*6E
$GPRMC,112213.0,A,3724.257273,N,12706.948073,E,0.0,53.8,030913,0.0,E,A*36
